station_name,latitude,longitude,station_start_year,rollout_cluster
Pitt St & Stanton St,40.71926081,-73.98178024,2013-01-01T00:00:00,1
W Houston St & Hudson St,40.72873888,-74.00748842,2013-01-01T00:00:00,1
Grand Army Plaza & Central Park S,40.764,-73.974,2013-01-01T00:00:00,1
W 20 St & 7 Ave,40.74238787,-73.998,2013-01-01T00:00:00,1
E 7 St & Avenue A,40.725,-73.98379855,2013-01-01T00:00:00,1
Bus Slip & State St,40.701907,-74.013942,2013-01-01T00:00:00,1
E 20 St & FDR Drive,40.73314259,-73.977,2013-01-01T00:00:00,1
E 4 St & 2 Ave,40.7262807,-73.98978041,2013-01-01T00:00:00,1
Washington Ave & Greene Ave,40.68650065,-73.96563307,2013-01-01T00:00:00,1
1 Ave & E 18 St,40.73381219,-73.98054421,2013-01-01T00:00:00,1
W 49 St & 8 Ave,40.761,-73.989,2013-01-01T00:00:00,1
W 16 St & The High Line,40.74334935,-74.00681753,2013-01-01T00:00:00,1
1 Ave & E 44 St,40.75001986,-73.96905301,2013-01-01T00:00:00,1
Broadway & W 36 St,40.75097711,-73.989,2013-01-01T00:00:00,1
1 Ave & E 16 St,40.731,-73.983,2013-01-01T00:00:00,1
West St & Chambers St,40.71754834,-74.01322069,2013-01-01T00:00:00,1
Norfolk St & Broome St,40.716,-73.989,2013-01-01T00:00:00,1
Hanover Pl & Livingston St,40.68864636,-73.98263429,2013-01-01T00:00:00,1
Lafayette Ave & Fort Greene Pl,40.686,-73.977,2013-01-01T00:00:00,1
Bialystoker Pl & Delancey St,40.71622644,-73.98261206,2013-01-01T00:00:00,1
E 2 St & Avenue B,40.722,-73.98368779,2013-01-01T00:00:00,1
E 59 St & Sutton Pl,40.75849116,-73.95920622,2013-01-01T00:00:00,1
W 39 St & 9 Ave,40.75645824,-73.99372222,2013-01-01T00:00:00,1
E 33 St & 2 Ave,40.744023,-73.976056,2013-01-01T00:00:00,1
E 2 St & Avenue C,40.7208736,-73.98085795,2013-01-01T00:00:00,1
NYCBS Depot - SSP,40.646768,-74.01651,2013-01-01T00:00:00,1
Mercer St & Bleecker St,40.72679454,-73.99695094,2013-01-01T00:00:00,1
Hicks St & Montague St,40.69512845,-73.99595065,2013-01-01T00:00:00,1
Clinton St & Joralemon St,40.692,-73.99337909,2013-01-01T00:00:00,1
Little West St & 1 Pl,40.70569254,-74.01677685,2013-01-01T00:00:00,1
Lexington Ave & E 26 St,40.74,-73.983293,2013-01-01T00:00:00,1
E 13 St & Avenue A,40.72955361,-73.980679661035538,2013-01-01T00:00:00,1
Clinton Ave & Flushing Ave,40.69794,-73.971,2013-01-01T00:00:00,1
11 Ave & W 27 St,40.751396,-74.005226,2013-01-01T00:00:00,1
Nassau St & Navy St,40.69839895,-73.98068914,2013-01-01T00:00:00,1
Carlton Ave & Flushing Ave,40.697787,-73.974,2013-01-01T00:00:00,1
Fulton St & Grand Ave,40.68223166,-73.9614583,2013-01-01T00:00:00,1
W 51 St & 6 Ave,40.7606597,-73.98042047,2013-01-01T00:00:00,1
Madison St & Montgomery St,40.713126,-73.984844,2013-01-01T00:00:00,1
Wythe Ave & Metropolitan Ave,40.716,-73.963198,2013-01-01T00:00:00,1
Montague St & Clinton St,40.69424674,-73.99230033159256,2013-01-01T00:00:00,1
Old Fulton St,40.70277159,-73.99383605,2013-01-01T00:00:00,1
Avenue D & E 12 St,40.72580614,-73.97422494,2013-01-01T00:00:00,1
6 Ave & Broome St,40.724308321602166,-74.004730358719826,2013-01-01T00:00:00,1
E 33 St & 5 Ave,40.74765947,-73.986,2013-01-01T00:00:00,1
W 22 St & 10 Ave,40.74691959,-74.00451887,2013-01-01T00:00:00,1
Elizabeth St & Hester St,40.71729,-73.996375,2013-01-01T00:00:00,1
Clermont Ave & Park Ave,40.69573398,-73.97129668,2013-01-01T00:00:00,1
E 10 St & Avenue A,40.72740794,-73.98142006,2013-01-01T00:00:00,1
Allen St & Stanton St,40.722055,-73.989111,2013-01-01T00:00:00,1
Concord St & Bridge St,40.69766564,-73.986,2013-01-01T00:00:00,1
Broadway & W 53 St,40.76344058,-73.98268129,2013-01-01T00:00:00,1
Henry St & Poplar St,40.700469,-73.991454,2013-01-01T00:00:00,1
1 Ave & E 15 St,40.73221853,-73.98165557,2013-01-01T00:00:00,1
Broadway & W 41 St,40.75513557,-73.98658032,2013-01-01T00:00:00,1
Washington Park,40.6917823,-73.9737299,2013-01-01T00:00:00,1
8 Ave & W 52 St,40.76370739,-73.986,2013-01-01T00:00:00,1
W 11 St & 6 Ave,40.73532427,-73.99800419,2013-01-01T00:00:00,1
Allen St & Rivington St,40.719,-73.98997825,2013-01-01T00:00:00,1
South St & Whitehall St,40.701,-74.013,2013-01-01T00:00:00,1
8 Ave & W 33 St,40.751551,-73.995,2013-01-01T00:00:00,1
Bank St & Hudson St,40.73652889,-74.007,2013-01-01T00:00:00,1
Central Park S & 6 Ave,40.76590936,-73.977,2013-01-01T00:00:00,1
Peck Slip & Front St,40.707873,-74.00167,2013-01-01T00:00:00,1
9 Ave & W 14 St,40.7405826,-74.00550867,2013-01-01T00:00:00,1
Greenwich St & W Houston St,40.728,-74.01,2013-01-01T00:00:00,1
W 59 St & 10 Ave,40.77,-73.989,2013-01-01T00:00:00,1
Flushing Ave & Carlton Ave,40.69788349,-73.97350332,2013-01-01T00:00:00,1
Sullivan St & Washington Sq,40.73047747,-73.99906065,2013-01-01T00:00:00,1
Murray St & West St,40.7149787,-74.013012,2013-01-01T00:00:00,1
W 52 St & 11 Ave,40.767,-73.995,2013-01-01T00:00:00,1
E 53 St & Madison Ave,40.7597108,-73.97402311,2013-01-01T00:00:00,1
W Broadway & Spring St,40.72490985,-74.00165855884552,2013-01-01T00:00:00,1
Madison St & Clinton St,40.71269042,-73.98776323,2013-01-01T00:00:00,1
Pearl St & Anchorage Pl,40.70281858,-73.98765762,2013-01-01T00:00:00,1
W 13 St & 6 Ave,40.73649403,-73.99704374,2013-01-01T00:00:00,1
Gallatin Pl & Livingston St,40.69028437,-73.98707105,2013-01-01T00:00:00,1
Church St & Leonard St,40.71743998,-74.00583475,2013-01-01T00:00:00,1
Lafayette St & E 8 St,40.730206605299543,-73.992,2013-01-01T00:00:00,1
DeKalb Ave & Vanderbilt Ave,40.68940747,-73.96885458,2013-01-01T00:00:00,1
W 45 St & 8 Ave,40.75929124,-73.98859651,2013-01-01T00:00:00,1
Washington Pl & Broadway,40.728,-73.995,2013-01-01T00:00:00,1
E 43 St & 2 Ave,40.75022392,-73.97121414,2013-01-01T00:00:00,1
Duane St & Greenwich St,40.71748752,-74.0104554,2013-01-01T00:00:00,1
Perry St & Bleecker St,40.73535398,-74.00483091,2013-01-01T00:00:00,1
E 37 St & Lexington Ave,40.44535,-73.978462,2013-01-01T00:00:00,1
2 Ave & E 58 St,40.76020258,-73.96478473,2013-01-01T00:00:00,1
E 47 St & Park Ave,40.755,-73.97498696,2013-01-01T00:00:00,1
9 Ave & W 22 St,40.7454973,-74.00197139,2013-01-01T00:00:00,1
Lafayette Ave & St James Pl,40.68851534,-73.9647628,2013-01-01T00:00:00,1
W 54 St & 9 Ave,40.76584941,-73.98690506,2013-01-01T00:00:00,1
E 39 St & 3 Ave,40.7489006,-73.977,2013-01-01T00:00:00,1
7 Ave & Farragut St,40.69892054,-73.97332996,2013-01-01T00:00:00,1
Broadway & W 51 St,40.761,-73.98336183,2013-01-01T00:00:00,1
W 26 St & 10 Ave,40.749,-74.004,2013-01-01T00:00:00,1
Fulton St & Waverly Ave,40.68317813,-73.965995907783508,2013-01-01T00:00:00,1
Liberty St & Broadway,40.70905623,-74.01043382,2013-01-01T00:00:00,1
Cherry St,40.71219906,-73.98,2013-01-01T00:00:00,1
Pershing Square S,40.75149263,-73.97798848,2013-01-01T00:00:00,1
Greenwich Ave & 8 Ave,40.73901691,-74.004,2013-01-01T00:00:00,1
Bank St & Washington St,40.7361967,-74.01,2013-01-01T00:00:00,1
Bayard St & Baxter St,40.71602118,-73.99974372,2013-01-01T00:00:00,1
Catherine St & Monroe St,40.71117444,-73.99682619,2013-01-01T00:00:00,1
Dean St & 4 Ave,40.68312489,-73.97895137,2013-01-01T00:00:00,1
Bond St & Schermerhorn St,40.68807003,-73.98410637,2013-01-01T00:00:00,1
E 6 St & Avenue B,40.72453734,-73.98185424,2013-01-01T00:00:00,1
Broadway & W 24 St,40.7423543,-73.98915076,2013-01-01T00:00:00,1
State St & Smith St,40.689,-73.98912867,2013-01-01T00:00:00,1
Cadman Plaza E & Red Cross Pl,40.69991755,-73.98971773,2013-01-01T00:00:00,1
MacDougal St & Washington Sq,40.73226398,-73.99852205,2013-01-01T00:00:00,1
E 20 St & Park Ave,40.737,-73.989,2013-01-01T00:00:00,1
Broadway & W 56 St,40.764,-73.983,2013-01-01T00:00:00,1
Lafayette St & Jersey St,40.724305272503322,-73.996009826660156,2013-01-01T00:00:00,1
Atlantic Ave & Furman St,40.69165183,-73.9999786,2013-01-01T00:00:00,1
William St & Pine St,40.70717936,-74.00887308,2013-01-01T00:00:00,1
Reade St & Broadway,40.71450451,-74.00562789,2013-01-01T00:00:00,1
E 33 St & 1 Ave,40.743,-73.974497839808464,2013-01-01T00:00:00,1
FDR Drive & E 35 St,40.744219,-73.97121214,2013-01-01T00:00:00,1
W 43 St & 6 Ave,40.75527307,-73.98316936,2013-01-01T00:00:00,1
LaGuardia Pl & W 3 St,40.728,-73.99810231,2013-01-01T00:00:00,1
W 4 St & 7 Ave S,40.734,-74.004,2013-01-01T00:00:00,1
5 Ave & E 29 St,40.7451677,-73.98683077,2013-01-01T00:00:00,1
Clermont Ave & Lafayette Ave,40.68764484,-73.96968902,2013-01-01T00:00:00,1
W 33 St & 7 Ave,40.75019995,-73.99093085,2013-01-01T00:00:00,1
W 20 St & 8 Ave,40.74345335,-74.00004031,2013-01-01T00:00:00,1
Greenwich St & Warren St,40.71542197,-74.01121978,2013-01-01T00:00:00,1
Cadman Plaza West & Montague St,40.69383,-73.990539,2013-01-01T00:00:00,1
Monroe St & Bedford Ave,40.6851443,-73.95380904,2013-01-01T00:00:00,1
NYCBS Depot - DEL,40.716633,-73.981933,2013-01-01T00:00:00,1
Mott St & Prince St,40.722,-73.995,2013-01-01T00:00:00,1
NYCBS Depot - FAR,40.751483,-73.996764,2013-01-01T00:00:00,1
W 29 St & 9 Ave,40.7500727,-73.99839279,2013-01-01T00:00:00,1
E 48 St & 3 Ave,40.7546011,-73.97187886,2013-01-01T00:00:00,1
State St,40.70251526,-74.01427023,2013-01-01T00:00:00,1
Cadman Plaza E & Tillary St,40.69597683,-73.99014892,2013-01-01T00:00:00,1
MacDougal St & Prince St,40.72710258,-74.00297088,2013-01-01T00:00:00,1
S 5 Pl & S 5 St,40.710451,-73.960876,2013-01-01T00:00:00,1
W 21 St & 6 Ave,40.74173969,-73.995,2013-01-01T00:00:00,1
11 Ave & W 41 St,40.76030096,-73.99884222,2013-01-01T00:00:00,1
DeKalb Ave & Skillman St,40.6906495,-73.95643107,2013-01-01T00:00:00,1
E 25 St & 2 Ave,40.73912601,-73.98,2013-01-01T00:00:00,1
Jay St & Tech Pl,40.695065,-73.987167,2013-01-01T00:00:00,1
Fulton St & Washington Ave,40.683048,-73.964915,2013-01-01T00:00:00,1
Broadway & W 49 St,40.76064679,-73.986,2013-01-01T00:00:00,1
E 51 St & Lexington Ave,40.75714758,-73.97207836,2013-01-01T00:00:00,1
Adelphi St & Myrtle Ave,40.69308257,-73.97178913,2013-01-01T00:00:00,1
NYCBS Test,40.6466068,-74.01597,2013-01-01T00:00:00,1
12 Ave & W 40 St,40.76087502,-74.004,2013-01-01T00:00:00,1
8 Ave & W 31 St N,40.750967348715982,-73.994442075490952,2013-01-01T00:00:00,1
Monroe St & Classon Ave,40.6845683,-73.95881081,2013-01-01T00:00:00,1
3 Ave & Schermerhorn St,40.68683208,-73.9796772,2013-01-01T00:00:00,1
Bedford Ave & S 9 St,40.70853074,-73.96408963,2013-01-01T00:00:00,1
Ashland Pl & Hanson Pl,40.685226719472553,-73.97805813,2013-01-01T00:00:00,1
Broad St & Bridge St,40.70365182,-74.013,2013-01-01T00:00:00,1
E 47 St & 2 Ave,40.75323098,-73.97032517,2013-01-01T00:00:00,1
E 30 St & Park Ave S,40.743,-73.98303529,2013-01-01T00:00:00,1
Greenwich St & North Moore St,40.720152270232852,-74.010365009307861,2013-01-01T00:00:00,1
Maiden Ln & Pearl St,40.70706456,-74.00731853,2013-01-01T00:00:00,1
Warren St & Church St,40.71473993,-74.00910627,2013-01-01T00:00:00,1
Howard St & Centre St,40.719,-74.001,2013-01-01T00:00:00,1
West Thames St,40.70834698,-74.01713445,2013-01-01T00:00:00,1
E 56 St & 3 Ave,40.75934501,-73.96759673,2013-01-01T00:00:00,1
E 45 St & 3 Ave,40.752,-73.974,2013-01-01T00:00:00,1
Front St & Gold St,40.70224,-73.982578,2013-01-01T00:00:00,1
E 6 St & Avenue D,40.722,-73.977,2013-01-01T00:00:00,1
Barrow St & Hudson St,40.73172428,-74.00674436,2013-01-01T00:00:00,1
E 11 St & 2 Ave,40.73047309,-73.98672378,2013-01-01T00:00:00,1
Lexington Ave & E 29 St,40.743115553764859,-73.982153534889221,2013-01-01T00:00:00,1
W 13 St & 5 Ave,40.73543934,-73.99453948,2013-01-01T00:00:00,1
Broadway & W 58 St,40.76695317,-73.98169333,2013-01-01T00:00:00,1
Broadway & W 37 St,40.75172632,-73.989,2013-01-01T00:00:00,1
Macon St & Nostrand Ave,40.6809833854,-73.95004798,2013-01-01T00:00:00,1
Lafayette Ave & Classon Ave,40.689,-73.96023854,2013-01-01T00:00:00,1
Sands St & Gold St,40.69986937,-73.98271933,2013-01-01T00:00:00,1
Harrison St & Hudson St,40.71870987,-74.01,2013-01-01T00:00:00,1
W 45 St & 6 Ave (1),40.7568001,-73.98291153,2013-01-01T00:00:00,1
Duffield St & Willoughby St,40.692,-73.9842844,2013-01-01T00:00:00,1
E 51 St & 1 Ave,40.75455731,-73.96592976,2013-01-01T00:00:00,1
Division St & Bowery,40.71413089,-73.9970468,2013-01-01T00:00:00,1
Lawrence St & Willoughby St,40.692,-73.98631746,2013-01-01T00:00:00,1
Broadway & W 60 St,40.76915505,-73.983,2013-01-01T00:00:00,1
Broadway & E 14 St,40.734,-73.992,2013-01-01T00:00:00,1
Rivington St & Ridge St,40.71850211,-73.98329859,2013-01-01T00:00:00,1
Stanton St & Chrystie St,40.72229346,-73.99147535,2013-01-01T00:00:00,1
Henry St & Atlantic Ave,40.69089272,-73.99612349,2013-01-01T00:00:00,1
Grand St & Havemeyer St,40.71286844,-73.95698119,2013-01-01T00:00:00,1
DeKalb Ave & Hudson Ave,40.689888,-73.981013,2013-01-01T00:00:00,1
Mercer St & Bleecker St S,40.72679454,-73.99695094,2013-01-01T00:00:00,1
W 52 St & 5 Ave,40.75992262,-73.97648516,2013-01-01T00:00:00,1
Willoughby Ave & Hall St,40.69196035,-73.96536851,2013-01-01T00:00:00,1
Joralemon St & Adams St,40.69246277,-73.98963911,2013-01-01T00:00:00,1
E 53 St & Lexington Ave,40.75828065,-73.97069431,2013-01-01T00:00:00,1
Broadway & W 29 St,40.7462009,-73.98855723,2013-01-01T00:00:00,1
Cadman Plaza W & Pierrepont St,40.69475701,-73.990527391433716,2013-01-01T00:00:00,1
1 Ave & E 30 St,40.74,-73.97536082,2013-01-01T00:00:00,1
Fulton St & William St,40.70955958,-74.007,2013-01-01T00:00:00,1
St James Pl & Pearl St,40.71,-74.001,2013-01-01T00:00:00,1
Columbia St & Rivington St,40.71739973,-73.98016555,2013-01-01T00:00:00,1
Water - Whitehall Plaza,40.70255065,-74.0127234,2013-01-01T00:00:00,1
Carmine St & 6 Ave,40.73038599,-74.00214988,2013-01-01T00:00:00,1
Lispenard St & Broadway,40.719,-74.00247214,2013-01-01T00:00:00,1
Bedford Ave & S 9th St,40.70853074,-73.96408963,2013-01-01T00:00:00,1
10 Ave & W 28 St,40.75066386,-74.00176802,2013-01-01T00:00:00,1
E 2 St & 2 Ave,40.7245634290432,-73.99069656,2013-01-01T00:00:00,1
W 41 St & 8 Ave,40.755,-73.9900262,2013-01-01T00:00:00,1
Kent Ave & S 11 St,40.707,-73.968415260314941,2013-01-01T00:00:00,1
E 5 St & Avenue C,40.72299208,-73.97995466,2013-01-01T00:00:00,1
E 15 St & Irving Pl,40.73524276,-73.98758561,2013-01-01T00:00:00,1
Centre St & Worth St,40.71494807,-74.00234482,2013-01-01T00:00:00,1
9 Ave & W 18 St,40.743,-74.004,2013-01-01T00:00:00,1
Suffolk St & Stanton St,40.72066442,-73.98517977,2013-01-01T00:00:00,1
9 Ave & W 45 St,40.76019252,-73.992,2013-01-01T00:00:00,1
Emerson Pl & Myrtle Ave,40.69363137,-73.96223558,2013-01-01T00:00:00,1
MLSWKiosk,40.755467,-73.986536,2013-01-01T00:00:00,1
Forsyth St & Canal St,40.7158155,-73.995,2013-01-01T00:00:00,1
Mercer St & Spring St,40.72362738,-73.99949601,2013-01-01T00:00:00,1
W 56 St & 6 Ave,40.76340613,-73.97722479,2013-01-01T00:00:00,1
W 37 St & 10 Ave,40.75660359,-73.998,2013-01-01T00:00:00,1
E 60 St & York Ave,40.758,-73.959223,2013-01-01T00:00:00,1
E 3 St & 1 Ave,40.72467721,-73.98783413,2013-01-01T00:00:00,1
E 39 St & 2 Ave,40.74780373,-73.974,2013-01-01T00:00:00,1
E 17 St & Broadway,40.737,-73.99009296,2013-01-01T00:00:00,1
W 15 St & 7 Ave,40.73935542,-73.99931783,2013-01-01T00:00:00,1
Johnson St & Gold St,40.69474881,-73.98362464,2013-01-01T00:00:00,1
E 11 St & 1 Ave,40.72953837,-73.98426726,2013-01-01T00:00:00,1
E 55 St & 2 Ave,40.75797322,-73.96603308,2013-01-01T00:00:00,1
Cliff St & Fulton St,40.70823502,-74.00530063,2013-01-01T00:00:00,1
South End Ave & Liberty St,40.711512,-74.015756,2013-01-01T00:00:00,1
Broadway & E 22 St,40.7403432,-73.98955109,2013-01-01T00:00:00,1
York St & Jay St,40.7014851,-73.98656928,2013-01-01T00:00:00,1
Canal St & Rutgers St,40.71427487,-73.98990025,2013-01-01T00:00:00,1
E 32 St & Park Ave,40.7457121,-73.983,2013-01-01T00:00:00,1
Pershing Square South,40.751581,-73.97791,2013-01-01T00:00:00,1
Avenue D & E 8 St,40.72368361,-73.975767,2013-01-01T00:00:00,1
Park Ave & St Edwards St,40.69608941,-73.97803415,2013-01-01T00:00:00,1
Allen St & Hester St,40.716,-73.992,2013-01-01T00:00:00,1
E 20 St & 2 Ave,40.73587678,-73.983,2013-01-01T00:00:00,1
W 56 St & 10 Ave,40.767,-73.989,2013-01-01T00:00:00,1
Washington Ave & Park Ave,40.69610226,-73.96751037,2013-01-01T00:00:00,1
Lafayette St & Jersey St N,40.72456089,-73.99565293,2013-01-01T00:00:00,1
Pershing Square North,40.751873,-73.977706,2013-01-01T00:00:00,1
Shevchenko Pl & E 7 St,40.728145,-73.990214,2013-01-01T00:00:00,1
Barclay St & Church St,40.71291224,-74.01020234,2013-01-01T00:00:00,1
W 18 St & 6 Ave,40.73971301,-73.99456405,2013-01-01T00:00:00,1
E 16 St & Irving Pl,40.734,-73.989,2013-01-01T00:00:00,1
E 52 St & 2 Ave,40.756014,-73.967416,2013-01-01T00:00:00,1
E 19 St & 3 Ave,40.73624527,-73.98473765,2013-01-01T00:00:00,1
Franklin St & W Broadway,40.719,-74.007,2013-01-01T00:00:00,1
W 14 St & The High Line,40.74195138,-74.00803013,2013-01-01T00:00:00,1
W 22 St & 8 Ave,40.74475148,-73.99915362,2013-01-01T00:00:00,1
Greenwich Ave & Charles St,40.735238,-74.000271,2013-01-01T00:00:00,1
W 25 St & 6 Ave,40.74395411,-73.99144871,2013-01-01T00:00:00,1
Columbia Heights & Cranberry St,40.70037867,-73.99548059,2013-01-01T00:00:00,1
W 37 St & 5 Ave,40.749,-73.98338988,2013-01-01T00:00:00,1
6 Ave & W 33 St,40.749,-73.989,2013-01-01T00:00:00,1
University Pl & E 14 St,40.734,-73.992085,2013-01-01T00:00:00,1
Fulton St & Rockwell Pl,40.687979,-73.979458,2013-01-01T00:00:00,1
E 9 St & Avenue C,40.72521311,-73.97768752,2013-01-01T00:00:00,1
Henry St & Grand St,40.714211,-73.981346,2013-01-01T00:00:00,1
John St & William St,40.70862144,-74.00722156,2013-01-01T00:00:00,1
W 47 St & 10 Ave,40.76269882,-73.99301222,2013-01-01T00:00:00,1
W 52 St & 9 Ave,40.76461837,-73.98789473,2013-01-01T00:00:00,1
W 24 St & 7 Ave,40.74487634,-73.99529885,2013-01-01T00:00:00,1
Cleveland Pl & Spring St,40.7218158,-73.998,2013-01-01T00:00:00,1
E 25 St & 1 Ave,40.737,-73.97738662,2013-01-01T00:00:00,1
Lexington Ave & Classon Ave,40.68676793,-73.95928168,2013-01-01T00:00:00,1
W 45 St & 6 Ave,40.756687206031792,-73.98291153,2013-01-01T00:00:00,1
Centre St & Chambers St,40.71273266,-74.0046073,2013-01-01T00:00:00,1
Railroad Ave & Kay Ave,40.70531194,-73.97100056,2013-01-01T00:00:00,1
W 46 St & 11 Ave,40.76341379,-73.998,2013-01-01T00:00:00,1
Avenue D & E 3 St,40.72082834,-73.97793172,2013-01-01T00:00:00,1
E 40 St & 5 Ave,40.752062307,-73.9816324043,2013-01-01T00:00:00,1
Pearl St & Hanover Square,40.7047177,-74.00926027,2013-01-01T00:00:00,1
W 17 St & 8 Ave,40.74177603,-74.00149746,2013-01-01T00:00:00,1
Great Jones St,40.72743423,-73.99379025,2013-01-01T00:00:00,1
W 26 St & 8 Ave,40.746,-73.998,2013-01-01T00:00:00,1
E 27 St & 1 Ave,40.739445,-73.976806,2013-01-01T00:00:00,1
Broadway & W 32 St,40.74854862,-73.98808416,2013-01-01T00:00:00,1
Pike St & E Broadway,40.71406667,-73.99293911,2013-01-01T00:00:00,1
Carlton Ave & Park Ave,40.69580705,-73.97355569,2013-01-01T00:00:00,1
E 12 St & 3 Ave,40.73223272,-73.98889957,2013-01-01T00:00:00,1
Allen St & E Houston St,40.722055,-73.989111,2013-01-01T00:00:00,1
Broadway & Battery Pl,40.70463334,-74.01361706,2013-01-01T00:00:00,1
Rivington St & Chrystie St,40.72110063,-73.9919254,2013-01-01T00:00:00,1
Shevchenko Pl & E 6 St,40.728145,-73.990214,2013-01-01T00:00:00,1
Washington Pl & 6 Ave,40.73224119,-74.00026394,2013-01-01T00:00:00,1
E 15 St & 3 Ave,40.734,-73.986923,2013-01-01T00:00:00,1
8 Ave & W 31 St,40.75044999,-73.995,2013-01-01T00:00:00,1
2 Ave & E 31 St,40.74290902,-73.97706058,2013-01-01T00:00:00,1
Willoughby Ave & Walworth St,40.69331716,-73.95381995,2013-01-01T00:00:00,1
Park Pl & Church St,40.713,-74.01,2013-01-01T00:00:00,1
W 53 St & 10 Ave,40.76669671,-73.992,2013-01-01T00:00:00,1
S 5 Pl & S 4 St,40.710451,-73.960876,2013-01-01T00:00:00,1
Christopher St & Greenwich St,40.73291553,-74.00711384,2013-01-01T00:00:00,1
Vesey Pl & River Terrace,40.7153379,-74.01658354,2013-01-01T00:00:00,1
Hudson St & Reade St,40.716,-74.01,2013-01-01T00:00:00,1
Franklin Ave & Myrtle Ave,40.694528,-73.958089,2013-01-01T00:00:00,1
Front St & Maiden Ln,40.70530954,-74.00612572,2013-01-01T00:00:00,1
Broadway & Berry St,40.71044554,-73.96525063,2013-01-01T00:00:00,1
Washington Square E,40.73049393,-73.9957214,2013-01-01T00:00:00,1
S Portland Ave & Hanson Pl,40.68539567,-73.97431458,2013-01-01T00:00:00,1
Broadway & W 39 St,40.75299641,-73.98721619,2013-01-01T00:00:00,1
E 48 St & Madison Ave,40.75666,-73.976684,2013-01-01T00:00:00,1
St Marks Pl & 2 Ave,40.728,-73.98713956,2013-01-01T00:00:00,1
Willoughby St & Fleet St,40.69196566,-73.9813018,2013-01-01T00:00:00,1
Pike St & Monroe St,40.71173107,-73.992,2013-01-01T00:00:00,1
W 43 St & 10 Ave,40.76009437,-73.995,2013-01-01T00:00:00,1
E 31 St & 3 Ave,40.743,-73.98,2013-01-01T00:00:00,1
Pershing Square N,40.75188406,-73.97770164,2013-01-01T00:00:00,1
E 47 St & 1 Ave,40.752,-73.968,2013-01-01T00:00:00,1
Washington St & Gansevoort St,40.739323,-74.008119,2013-01-01T00:00:00,1
E 55 St & Lexington Ave,40.75968085,-73.97031366,2013-01-01T00:00:00,1
Fulton St & Broadway,40.71,-74.01,2013-01-01T00:00:00,1
Grand St & Greene St,40.72165481,-74.002381414175019,2013-01-01T00:00:00,1
Broadway & W 38 St,40.75299641,-73.98721619,2013-01-01T00:00:00,1
11 Ave & W 59 St,40.77,-73.990541,2013-01-01T00:00:00,1
W 38 St & 8 Ave,40.75466591,-73.992,2013-01-01T00:00:00,1
S 4 St & Wythe Ave,40.71285887,-73.96590294,2013-01-01T00:00:00,1
Laight St & Hudson St,40.72185379,-74.00771779,2013-01-01T00:00:00,1
W 42 St & 8 Ave,40.7575699,-73.99098507,2013-01-01T00:00:00,1
Leonard St & Church St,40.717571,-74.007,2013-01-01T00:00:00,1
Fulton St & Clermont Ave,40.68415748,-73.96922273,2013-01-01T00:00:00,1
Lefferts Pl & Franklin Ave,40.68,-73.956,2013-01-01T00:00:00,1
Stanton St & Mangin St,40.71782143,-73.97628939,2013-01-01T00:00:00,1
Watts St & Greenwich St,40.72405549,-74.00965965,2013-01-01T00:00:00,1
E 58 St & 3 Ave,40.76095756,-73.968,2013-01-01T00:00:00,1
Metropolitan Ave & Bedford Ave,40.71534825,-73.96024116,2013-01-01T00:00:00,1
9 Ave & W 16 St,40.74206539,-74.00443172,2013-01-01T00:00:00,1
St James Pl & Oliver St,40.713,-73.99851193,2013-01-01T00:00:00,1
W 27 St & 7 Ave,40.746647,-73.993915,2013-01-01T00:00:00,1
Greenwich St & N Moore St,40.72043411,-74.01020609,2013-01-01T00:00:00,1
Market St & Cherry St,40.71076228,-73.99400398,2013-01-01T00:00:00,1
Old Slip & Front St,40.7037992,-74.00838676,2013-01-01T00:00:00,1
Clark St & Henry St,40.69760127,-73.99344559,2013-01-01T00:00:00,1
E 16 St & 5 Ave,40.737,-73.99238967,2013-01-01T00:00:00,1
Clinton St & Tillary St,40.696192,-73.991420567035675,2013-01-01T00:00:00,1
6 Ave & Canal St,40.72243797,-74.00566443,2013-01-01T00:00:00,1
DeKalb Ave & S Portland Ave,40.68981035,-73.97493121,2013-01-01T00:00:00,1
S 3 St & Bedford Ave,40.71260486,-73.96264403,2013-01-01T00:00:00,1
Lexington Ave & E 24 St,40.74025878,-73.98409214,2013-01-01T00:00:00,1
E 56 St & Madison Ave,40.761573,-73.972924,2013-01-01T00:00:00,1
Clinton St & Grand St,40.71559509,-73.9870295,2013-01-01T00:00:00,1
Clinton Ave & Myrtle Ave,40.693261,-73.968896,2013-01-01T00:00:00,1
E 10 St & 5 Ave,40.73331967,-73.99510132,2013-01-01T00:00:00,1
E 23 St & 1 Ave,40.736502,-73.97809472,2013-01-01T00:00:00,1
W 44 St & 5 Ave,40.75500254,-73.98014437,2013-01-01T00:00:00,1
E 24 St & Park Ave S,40.74,-73.98602213,2013-01-01T00:00:00,1
Broadway & W 55 St,40.7652654,-73.98192338,2013-01-01T00:00:00,1
St Marks Pl & 1 Ave,40.72779126,-73.98564945,2013-01-01T00:00:00,1
E 11 St & Broadway,40.73261787,-73.99158043,2013-01-01T00:00:00,1
W 31 St & 7 Ave,40.749,-73.992,2013-01-01T00:00:00,1
Hancock St & Bedford Ave,40.68216564,-73.95399026,2013-01-01T00:00:00,1
Cumberland St & Lafayette Ave,40.68753406,-73.97265183,2013-01-01T00:00:00,1
W 49 St & 5 Ave,40.75795248,-73.97787642,2013-01-01T00:00:00,1
E 14 St & Avenue B,40.72938685,-73.97772429,2013-01-01T00:00:00,1
W 34 St & 11 Ave,40.755,-74.0021163,2013-01-01T00:00:00,1
3969.TEMP (Bike The Branches - Central Branch),40.722852,-73.959114,2013-01-01T00:00:00,1
W 13 St & 7 Ave,40.73781509,-73.99994661,2013-01-01T00:00:00,1
E 43 St & Vanderbilt Ave,40.75320159,-73.9779874,2013-01-01T00:00:00,1
Sands St & Navy St,40.699773,-73.979927,2013-01-01T00:00:00,1
Front St & Washington St,40.70255088,-73.98940236,2013-01-01T00:00:00,1
W 20 St & 11 Ave,40.746,-74.007756,2013-01-01T00:00:00,1
Myrtle Ave & St Edwards St,40.692,-73.97703874,2013-01-01T00:00:00,1
Atlantic Ave & Fort Greene Pl,40.68382604,-73.97632328,2013-01-01T00:00:00,1
South St & Gouverneur Ln,40.70355377,-74.00670227,2013-01-01T00:00:00,1
Forsyth St & Broome St,40.71893904,-73.99266288,2013-01-01T00:00:00,1
Spruce St & Nassau St,40.71146364,-74.00552427,2013-01-01T00:00:00,1
Peck Slip & Front Street,40.707873,-74.00167,2014-01-01T00:00:00,2
E 41 St & Madison Ave,40.752141,-73.979921936988816,2014-01-01T00:00:00,2
E 42 St & Vanderbilt Ave,40.752416,-73.97837,2014-01-01T00:00:00,2
Park Ave & Marcus Garvey Blvd,40.698617,-73.941342,2015-01-01T00:00:00,3
21 St & Queens Plaza North,40.75325964,-73.94335788,2015-01-01T00:00:00,3
Center Blvd & Borden Ave,40.74161,-73.96044,2015-01-01T00:00:00,3
Graham Ave & Conselyea St,40.715143,-73.944507,2015-01-01T00:00:00,3
W 82 St & Central Park West,40.78275,-73.97137,2015-01-01T00:00:00,3
Lewis Ave & Decatur St,40.6814598,-73.934903,2015-01-01T00:00:00,3
Frost St & Meeker St,40.71764,-73.94882,2015-01-01T00:00:00,3
N 15 St & Wythe Ave,40.724055,-73.955736,2015-01-01T00:00:00,3
Mobile 01,40.771051856415305,-73.9643383026123,2015-01-01T00:00:00,3
Riverside Dr & W 72 St ,40.780577990103339,-73.985624313354492,2015-01-01T00:00:00,3
Driggs Ave & N Henry St,40.722,-73.944,2015-01-01T00:00:00,3
E 67 St & Park Ave,40.767,-73.965920805931091,2015-01-01T00:00:00,3
Banker St & Meserole Ave,40.72606,-73.95621,2015-01-01T00:00:00,3
Lewis Ave & Madison St,40.686312,-73.935775,2015-01-01T00:00:00,3
W 84 St & Columbus Ave,40.78499979,-73.97283406,2015-01-01T00:00:00,3
Riverside Dr & W 78 St,40.78414472,-73.98362492,2015-01-01T00:00:00,3
Riverside Dr & W 72 St,40.780577990103339,-73.986,2015-01-01T00:00:00,3
E 75 St & 3 Ave,40.77112927,-73.95772297,2015-01-01T00:00:00,3
S 4 St & Rodney St,40.70934,-73.95608,2015-01-01T00:00:00,3
Franklin St & Dupont St,40.73564,-73.959,2015-01-01T00:00:00,3
Montrose Ave & Bushwick Ave,40.707,-73.941,2015-01-01T00:00:00,3
East End Ave & E 86 St,40.77518615,-73.94446054,2015-01-01T00:00:00,3
Willoughby Ave & Tompkins Ave,40.69425403,-73.94626915,2015-01-01T00:00:00,3
W 64 St & West End Ave,40.77452835,-73.98753759,2015-01-01T00:00:00,3
Marcy Ave & Lafayette Ave,40.6900815,-73.947915,2015-01-01T00:00:00,3
Bond St & Fulton St,40.689621887903328,-73.983042687177658,2015-01-01T00:00:00,3
44 Dr & Jackson Ave,40.746,-73.944,2015-01-01T00:00:00,3
Kosciuszko St & Tompkins Ave,40.69128258,-73.9452416,2015-01-01T00:00:00,3
Soissons Landing,40.69231660719192,-74.016398,2015-01-01T00:00:00,3
E 81 St & York Ave,40.7728384,-73.95,2015-01-01T00:00:00,3
Graham Ave & Withers St,40.7169811,-73.94485918,2015-01-01T00:00:00,3
Myrtle Ave & Lewis Ave,40.69681963,-73.93756926,2015-01-01T00:00:00,3
N 6 St & Bedford Ave,40.716,-73.959,2015-01-01T00:00:00,3
E 77 St & Park Ave,40.774405455003,-73.961752653121934,2015-01-01T00:00:00,3
Huron St & Franklin St,40.73266,-73.95826,2015-01-01T00:00:00,3
47 Ave & 31 St,40.743,-73.93561,2015-01-01T00:00:00,3
1 Ave & E 78 St,40.77,-73.9535166,2015-01-01T00:00:00,3
Scholes St & Manhattan Ave,40.70870368,-73.9448625,2015-01-01T00:00:00,3
1 Ave & E 62 St,40.761,-73.962,2015-01-01T00:00:00,3
E 72 St & Park Ave,40.77,-73.965,2015-01-01T00:00:00,3
Division Ave & Hooper St,40.706842031013252,-73.9544353965357,2015-01-01T00:00:00,3
Leonard St & Meeker Ave,40.717318403855785,-73.948202133178711,2015-01-01T00:00:00,3
Union Ave & N 12 St,40.71924,-73.95242,2015-01-01T00:00:00,3
Division Ave & Marcy Ave,40.70708701,-73.95796783,2015-01-01T00:00:00,3
Myrtle Ave & Marcy Ave,40.695,-73.95,2015-01-01T00:00:00,3
Amsterdam Ave & W 82 St,40.78524672,-73.97667321,2015-01-01T00:00:00,3
E 67 St & Lexington Ave,40.767342591432168,-73.9648586511612,2015-01-01T00:00:00,3
E 71 St & 2 Ave,40.768175467422452,-73.959102630615234,2015-01-01T00:00:00,3
E 81 St & Park Ave,40.77677702,-73.9590097,2015-01-01T00:00:00,3
Central Park West & W 76 St,40.77896784,-73.97374737,2015-01-01T00:00:00,3
Nostrand Ave & Myrtle Ave,40.69527008,-73.95238108,2015-01-01T00:00:00,3
India St & Manhattan Ave,40.73232194,-73.9550858,2015-01-01T00:00:00,3
Columbus Ave & W 72 St,40.776,-73.98,2015-01-01T00:00:00,3
Leonard St & Manhattan Ave,40.721522403393031,-73.94898265600203,2015-01-01T00:00:00,3
E 55 St & 3 Ave,40.758996559605123,-73.968653976917267,2015-01-01T00:00:00,3
Jackson Ave & 46 Rd,40.74524768,-73.94733276,2015-01-01T00:00:00,3
Milton St & Franklin St,40.728,-73.959,2015-01-01T00:00:00,3
45 Rd & 11 St,40.746,-73.95,2015-01-01T00:00:00,3
E 48 St & 5 Ave,40.757245679117261,-73.978059142827988,2015-01-01T00:00:00,3
31 St & Thomson Ave,40.74469738,-73.93540375,2015-01-01T00:00:00,3
Metropolitan Ave & Meeker Ave,40.71413311,-73.95234386,2015-01-01T00:00:00,3
Broadway & Whipple St,40.7016657,-73.9437303,2015-01-01T00:00:00,3
Penn Station Valet,40.751283596962296,-73.99692445993422,2015-01-01T00:00:00,3
E 40 St & Madison Ave,40.751593684511121,-73.98043155670166,2015-01-01T00:00:00,3
Union Ave & Jackson St,40.7160751,-73.952029,2015-01-01T00:00:00,3
21 St & 41 Ave,40.753833434376219,-73.942676782608018,2015-01-01T00:00:00,3
Greenpoint Ave & Manhattan Ave,40.73026,-73.95394,2015-01-01T00:00:00,3
E 77 St & 3 Ave,40.77314236,-73.95856158,2015-01-01T00:00:00,3
Center BlvdÂ & Borden Ave,40.74161,-73.96044,2015-01-01T00:00:00,3
McGuinness Blvd & Eagle St,40.73555,-73.953,2015-01-01T00:00:00,3
Queens Plaza North & Crescent St,40.75110165,-73.941,2015-01-01T00:00:00,3
W 78 St & Broadway,40.78339981,-73.98093133,2015-01-01T00:00:00,3
Marcus Garvey Blvd & Macon St,40.682601,-73.938037,2015-01-01T00:00:00,3
Roebling St & N 4 St,40.71469,-73.95739,2015-01-01T00:00:00,3
E.T. Bike-In Movie Valet Station ,40.722852,-73.959114,2015-01-01T00:00:00,3
E 81 St & 3 Ave,40.77573034,-73.9567526,2015-01-01T00:00:00,3
W 67 St & Broadway,40.77492513,-73.983,2015-01-01T00:00:00,3
Tompkins Ave & Hopkins St,40.69957608,-73.94708417,2015-01-01T00:00:00,3
5 Ave & E 63 St,40.766368,-73.971518,2015-01-01T00:00:00,3
W 13 St & Hudson St,40.73997354103409,-74.005138725042343,2015-01-01T00:00:00,3
E 59 St & Madison Ave,40.76350532,-73.97109243,2015-01-01T00:00:00,3
Pulaski St & Marcus Garvey Blvd,40.6933982,-73.939877,2015-01-01T00:00:00,3
Nassau Ave & Russell St,40.725,-73.94434,2015-01-01T00:00:00,3
W 74 St & Columbus Ave,40.7785669,-73.97754961,2015-01-01T00:00:00,3
9 St & 44 Rd,40.74966,-73.9521,2015-01-01T00:00:00,3
Bedford Ave & Nassau Ave,40.722,-73.953,2015-01-01T00:00:00,3
Yankee Ferry Terminal,40.686931,-74.016966,2015-01-01T00:00:00,3
Leonard St & Grand St,40.71103537,-73.94714303,2015-01-01T00:00:00,3
Devoe St & Leonard St,40.71348658,-73.94792458,2015-01-01T00:00:00,3
Boerum St & Broadway,40.70538077,-73.94976519,2015-01-01T00:00:00,3
PABT Valet,40.758984813996342,-73.993799686431885,2015-01-01T00:00:00,3
Halsey St & Tompkins Ave,40.6823687,-73.944118,2015-01-01T00:00:00,3
Amsterdam Ave & W 73 St,40.779,-73.980930447578416,2015-01-01T00:00:00,3
Putnam Ave & Nostrand Ave,40.68402,-73.94977,2015-01-01T00:00:00,3
Central Park West & W 85 St,40.78472675,-73.971,2015-01-01T00:00:00,3
N 12 St & Bedford Ave,40.72079821,-73.956,2015-01-01T00:00:00,3
Hanson Pl & St Felix St,40.685159599891776,-73.977113664150238,2015-01-01T00:00:00,3
48 Ave & 5 St,40.743,-73.956,2015-01-01T00:00:00,3
3 Ave & E 62 St,40.76312584,-73.96526895,2015-01-01T00:00:00,3
Humboldt St & Varet St,40.7031724,-73.940636,2015-01-01T00:00:00,3
Riverside Dr & W 82 St,40.78720869,-73.98128127,2015-01-01T00:00:00,3
Leonard St & Bayard St,40.71928,-73.94861,2015-01-01T00:00:00,3
E 85 St & York Ave,40.77536905,-73.94803392,2015-01-01T00:00:00,3
W 76 St & Columbus Ave,40.779,-73.977285325527191,2015-01-01T00:00:00,3
Throop Ave & Myrtle Ave,40.69622937,-73.94371094,2015-01-01T00:00:00,3
Driggs Ave & Lorimer St,40.72179134,-73.9504154,2015-01-01T00:00:00,3
E 84 St & Park Ave,40.77862688,-73.959,2015-01-01T00:00:00,3
E 80 St & 2 Ave,40.773913902381182,-73.9543953537941,2015-01-01T00:00:00,3
Graham Ave & Herbert St,40.71929301,-73.94500379,2015-01-01T00:00:00,3
E 85 St & 3 Ave,40.77801203,-73.95407149,2015-01-01T00:00:00,3
India St & East River,40.73165141,-73.96161892,2015-01-01T00:00:00,3
Hope St & Union Ave,40.71167351,-73.95141312,2015-01-01T00:00:00,3
E 82 St & 2 Ave,40.77517793,-73.95324922,2015-01-01T00:00:00,3
Berry St & N 8 St,40.719,-73.959,2015-01-01T00:00:00,3
Lewis Ave & Kosciuszko St,40.69237074,-73.93705428,2015-01-01T00:00:00,3
E 72 St & York Ave,40.76663814,-73.95348296,2015-01-01T00:00:00,3
Schermerhorn St & Court St,40.691029256779679,-73.992,2015-01-01T00:00:00,3
Vernon Blvd & 50 Ave,40.74232744,-73.95411749,2015-01-01T00:00:00,3
Kent Ave & N 7 St,40.720367752984551,-73.961650729179382,2015-01-01T00:00:00,3
Union Ave & Wallabout St,40.70029511,-73.95032283,2015-01-01T00:00:00,3
Cambridge Pl & Gates Ave,40.68488,-73.96304,2015-01-01T00:00:00,3
W 70 St & Amsterdam Ave,40.776,-73.983,2015-01-01T00:00:00,3
Stagg St & Union Ave,40.70877084,-73.95095259,2015-01-01T00:00:00,3
Central Park West & W 68 St,40.7734066,-73.97782542,2015-01-01T00:00:00,3
Broadway & Roebling St,40.709248262761569,-73.962,2015-01-01T00:00:00,3
Kingston Ave & Herkimer St,40.67890679,-73.94142771,2015-01-01T00:00:00,3
Lorimer St & Broadway,40.70411791,-73.94818595,2015-01-01T00:00:00,3
Graham Ave & Grand St,40.711863,-73.944024,2015-01-01T00:00:00,3
Putnam Ave & Throop Ave,40.6851532,-73.94111,2015-01-01T00:00:00,3
Marcy Ave & MacDonough St,40.680617684554512,-73.946249485015869,2015-01-01T00:00:00,3
W 84 St & Broadway,40.7867947,-73.977112,2015-01-01T00:00:00,3
N 11 St & Wythe Ave,40.72153267,-73.95782357,2015-01-01T00:00:00,3
Norman Ave & Leonard St,40.725769967272143,-73.9507395029068,2015-01-01T00:00:00,3
McKibbin St & Manhattan Ave,40.70510918,-73.94407279,2015-01-01T00:00:00,3
Bushwick Ave & Powers St,40.71247661,-73.94100005,2015-01-01T00:00:00,3
Albany Ave & Fulton St,40.6800105,-73.938475,2015-01-01T00:00:00,3
1 Ave & E 68 St,40.764,-73.959,2015-01-01T00:00:00,3
N Henry St & Richardson St,40.71921585,-73.9424469,2015-01-01T00:00:00,3
5 Ave & E 78 St,40.776,-73.965,2015-01-01T00:00:00,3
Greene Ave & Throop Ave,40.6894932,-73.942061,2015-01-01T00:00:00,3
Lexington Ave & E 63 St,40.76440023,-73.96648977,2015-01-01T00:00:00,3
Leonard St & Boerum St,40.70583339,-73.947,2015-01-01T00:00:00,3
Greene Ave & Nostrand Ave,40.6883337,-73.950916,2015-01-01T00:00:00,3
Kosciuszko St & Nostrand Ave,40.69072549,-73.95133465,2015-01-01T00:00:00,3
21 St & 43 Ave,40.75052534,-73.94594845,2015-01-01T00:00:00,3
Meserole Ave & Manhattan Ave,40.72708584,-73.953,2015-01-01T00:00:00,3
N 8 St & Driggs Ave,40.71774592,-73.95600096,2015-01-01T00:00:00,3
Central Park West & W 72 St,40.77575319,-73.9762057363987,2015-01-01T00:00:00,3
Fulton St & Utica Ave,40.6794268,-73.9298911,2015-01-01T00:00:00,3
Monroe St & Tompkins Ave,40.686203,-73.944694,2015-01-01T00:00:00,3
5 Ave & E 73 St,40.77282817,-73.968,2015-01-01T00:00:00,3
Brooklyn Bridge Park - Pier 2,40.698458,-73.997178,2015-01-01T00:00:00,3
E 84 St & 1 Ave,40.77565541,-73.95068615,2015-01-01T00:00:00,3
46 Ave & 5 St,40.74731,-73.95451,2015-01-01T00:00:00,3
W 63 St & Broadway,40.77163851,-73.983,2015-01-01T00:00:00,3
Riverside Blvd & W 67 St,40.777507027547976,-73.989,2015-01-01T00:00:00,3
14 St & 7 Ave,40.663779,-73.98396846,2016-01-01T00:00:00,4
Henry St & W 9 St,40.67630357634183,-74.00324957,2016-01-01T00:00:00,4
E 89 St & York Ave,40.7779453,-73.947,2016-01-01T00:00:00,4
Pacific St & Nevins St,40.6853761,-73.98302136,2016-01-01T00:00:00,4
Carroll St & Bond St,40.6786115,-73.99037292,2016-01-01T00:00:00,4
E 106 St & Lexington Ave,40.791976,-73.945993,2016-01-01T00:00:00,4
Cooper Square & E 7 St,40.729236499100061,-73.990868031978607,2016-01-01T00:00:00,4
Hoyt St & Warren St,40.6843549,-73.98901629,2016-01-01T00:00:00,4
W 106 St & Amsterdam Ave,40.8008363,-73.9664492472,2016-01-01T00:00:00,4
10 St & 7 Ave,40.6662078,-73.98199886,2016-01-01T00:00:00,4
Bike The Branches - Red Hook Branch,40.675349530674119,-74.010020345449448,2016-01-01T00:00:00,4
Bressler,40.646538367096483,-74.016587734222412,2016-01-01T00:00:00,4
Union St & Nevins St,40.679097997216843,-73.987654745578766,2016-01-01T00:00:00,4
5 St & 6 Ave,40.6704836,-73.98208968,2016-01-01T00:00:00,4
Central Park North & Adam Clayton Powell Blvd,40.799484,-73.956,2016-01-01T00:00:00,4
Bike in Movie Night | Prospect Park Bandshell,40.662987,-73.976918,2016-01-01T00:00:00,4
Garfield Pl & 8 Ave,40.6711978,-73.97484126,2016-01-01T00:00:00,4
Kiosk in a box Deployment,40.70861098096821,-73.92850399017334,2016-01-01T00:00:00,4
NYCBS Depot BAL - DYR,0.0,-73.993858695030212,2016-01-01T00:00:00,4
Douglass St & 4 Ave,40.6792788,-73.98154004,2016-01-01T00:00:00,4
Wyckoff St & 3 Ave,40.6827549,-73.98258555,2016-01-01T00:00:00,4
7 St & 5 Ave,40.6704922,-73.98541675,2016-01-01T00:00:00,4
Smith St & 3 St,40.6787242,-73.99599099,2016-01-01T00:00:00,4
E 102 St & Park Ave,40.7904828,-73.95033068,2016-01-01T00:00:00,4
E 95 St & 3 Ave,40.7849032,-73.950503,2016-01-01T00:00:00,4
Richards St & Delavan St,40.6794327,-74.00785041,2016-01-01T00:00:00,4
Clinton St & 4 Place,40.6783563,-74.00014502,2016-01-01T00:00:00,4
3 St & Hoyt St,40.6777287,-73.99364123,2016-01-01T00:00:00,4
Grand St & Elizabeth St,40.718822,-73.99596,2016-01-01T00:00:00,4
3 Ave & 14 St,40.6685455,-73.99333264,2016-01-01T00:00:00,4
2 Ave & E 105 St,40.7898175,-73.94296109,2016-01-01T00:00:00,4
W 104 St & Amsterdam Ave,40.7989937,-73.966494798660278,2016-01-01T00:00:00,4
2 Ave & E 99 St,40.7862586,-73.94552579,2016-01-01T00:00:00,4
Warren St & Court St,40.686371,-73.99383324,2016-01-01T00:00:00,4
E 76 St & Park Ave,40.773,-73.96222088,2016-01-01T00:00:00,4
Pioneer St & Richards St,40.6777748,-74.0094613,2016-01-01T00:00:00,4
Bond St & Bergen St,40.6849668,-73.98620772,2016-01-01T00:00:00,4
3 Ave & E 72 St,40.7699426,-73.96060712,2016-01-01T00:00:00,4
E 110 St & Madison Ave,40.7961535,-73.94782145,2016-01-01T00:00:00,4
E 68 St & 3 Ave,40.76712840349542,-73.962246179580688,2016-01-01T00:00:00,4
3 St & Prospect Park West,40.668,-73.974,2016-01-01T00:00:00,4
Plaza St West & Flatbush Ave,40.6750207,-73.97111473,2016-01-01T00:00:00,4
6 Ave & 9 St,40.668127,-73.98377641,2016-01-01T00:00:00,4
6 Ave & 12 St,40.6663181,-73.9854617,2016-01-01T00:00:00,4
Clinton St & Union St,40.6831164,-73.99785267,2016-01-01T00:00:00,4
Court St & Nelson St,40.6763947,-73.99869893,2016-01-01T00:00:00,4
Columbia St & Kane St,40.68763155,-74.0016256,2016-01-01T00:00:00,4
Reed St & Van Brunt St,40.6747844,-74.01612847,2016-01-01T00:00:00,4
2 Ave & 9 St,40.6724811,-73.99331394,2016-01-01T00:00:00,4
Degraw St & Smith St,40.6829151,-73.99318208,2016-01-01T00:00:00,4
E 35 St & 3 Ave,40.746524,-73.977885,2016-01-01T00:00:00,4
Central Park West & W 100 St,40.793393,-73.9635556,2016-01-01T00:00:00,4
3 Ave & E 100 St,40.7877214,-73.94728331,2016-01-01T00:00:00,4
4 Ave & 2 St,40.674613422475815,-73.985011428594589,2016-01-01T00:00:00,4
Columbus Ave & W 95 St,40.791,-73.968087,2016-01-01T00:00:00,4
Berkeley Pl & 6 Ave,40.6765304,-73.97846879,2016-01-01T00:00:00,4
Columbia St & Lorraine St,40.6747055,-74.0075572,2016-01-01T00:00:00,4
8 Ave & W 16 St,40.740983,-74.001702,2016-01-01T00:00:00,4
Bike The Branches - Central Branch,40.67280641227746,-73.968865871429443,2016-01-01T00:00:00,4
Commerce St & Van Brunt St,40.6812117,-74.00860912,2016-01-01T00:00:00,4
Congress St & Clinton St,40.6881529,-73.99520919,2016-01-01T00:00:00,4
E 61 St & Park Ave,40.764210071690641,-73.969104588031769,2016-01-01T00:00:00,4
3 St & 3 Ave,40.6750705,-73.98775226,2016-01-01T00:00:00,4
E 74 St & 1 Ave,40.7689738,-73.95482273,2016-01-01T00:00:00,4
Nassau Ave & Newell St,40.724812564400175,-73.947526216506958,2016-01-01T00:00:00,4
Madison Ave & E 99 St,40.788,-73.953,2016-01-01T00:00:00,4
7 St & 3 Ave,40.672602981501257,-73.989830017089844,2016-01-01T00:00:00,4
W 95 St & Broadway,40.7937704,-73.971888,2016-01-01T00:00:00,4
E 58 St & 1 Ave,40.75892386377695,-73.962262272834778,2016-01-01T00:00:00,4
W 100 St & Manhattan Ave,40.794,-73.965,2016-01-01T00:00:00,4
Prospect Pl & 6 Ave,40.6793307,-73.97519523,2016-01-01T00:00:00,4
Degraw St & Hoyt St,40.681990442707033,-73.990790247917175,2016-01-01T00:00:00,4
E 89 St & 3 Ave,40.7806284,-73.953,2016-01-01T00:00:00,4
7 Ave & Park Pl,40.677,-73.974,2016-01-01T00:00:00,4
Baltic St & 5 Ave,40.6795766,-73.98,2016-01-01T00:00:00,4
12 St & 4 Ave,40.668,-73.9904394,2016-01-01T00:00:00,4
Adventures NYC,40.773768670228741,-73.971169888973236,2016-01-01T00:00:00,4
NYCBS Depot - PIT,40.716909780459652,-73.983837962150574,2016-01-01T00:00:00,4
Kane St & Clinton St,40.6861758,-73.99645295,2016-01-01T00:00:00,4
Wolcott St & Dwight St,40.6753274,-74.0100698,2016-01-01T00:00:00,4
Verona Pl & Fulton St,40.6803560840434,-73.9476791024208,2016-01-01T00:00:00,4
Carroll St & 5 Ave,40.6751622,-73.9814832,2016-01-01T00:00:00,4
Amsterdam Ave & W 66 St,40.7746671,-73.986,2016-01-01T00:00:00,4
Columbia St & W 9 St,40.6769993,-74.00647134,2016-01-01T00:00:00,4
1 Ave & E 94 St,40.7817212,-73.947,2016-01-01T00:00:00,4
Butler St & Court St,40.6849894,-73.99440329,2016-01-01T00:00:00,4
2 Ave  & E 104 St,40.7892105,-73.94370784,2016-01-01T00:00:00,4
W 90 St & Amsterdam Ave,40.790179480950812,-73.974,2016-01-01T00:00:00,4
W 107 St & Columbus Ave,40.7997568,-73.9621128676,2016-01-01T00:00:00,4
Columbus Ave & W 103 St,40.7969347,-73.9643412291,2016-01-01T00:00:00,4
Greenwich St & Hubert St,40.721319,-74.010065,2016-01-01T00:00:00,4
W 106 St & Central Park West,40.7981856,-73.9605909006,2016-01-01T00:00:00,4
Douglass St & 3 Ave,40.6802133,-73.98432695,2016-01-01T00:00:00,4
W 88 St & West End Ave,40.790254173304191,-73.977183401584611,2016-01-01T00:00:00,4
E 88 St & 1 Ave,40.778301,-73.95,2016-01-01T00:00:00,4
University Pl & E 8 St,40.731,-73.995,2016-01-01T00:00:00,4
Columbia St & Degraw St,40.6859296,-74.00242364,2016-01-01T00:00:00,4
E 88 St & Park Ave,40.781410700190015,-73.95595908164978,2016-01-01T00:00:00,4
NYCBS Depot - STY,40.729193,-73.976655,2016-01-01T00:00:00,4
W 27 St & 10 Ave,40.750181563256831,-74.002184271812439,2016-01-01T00:00:00,4
KentAve&N7 St,40.72057658,-73.96150225,2016-01-01T00:00:00,4
West Drive & Prospect Park West,40.6610633719006,-73.98,2016-01-01T00:00:00,4
SSP Tech Workshop,40.646678,-74.016263,2016-01-01T00:00:00,4
Prospect Park West & 8 St,40.665,-73.977,2016-01-01T00:00:00,4
14 St & 5 Ave,40.665,-73.989,2016-01-01T00:00:00,4
W 89 St & Columbus Ave,40.7882213,-73.97041561,2016-01-01T00:00:00,4
Kiosk in a box Motivate,40.646677898897863,-74.016303420066833,2016-01-01T00:00:00,4
W 100 St & Broadway,40.797,-73.971,2016-01-01T00:00:00,4
8D OPS 01,40.517975200388513,-74.0313720703125,2016-01-01T00:00:00,4
5 Ave & E 103 St,40.791,-73.953,2016-01-01T00:00:00,4
E 102 St & 1 Ave,40.7869946,-73.94164802,2016-01-01T00:00:00,4
6 St & 7 Ave,40.6686627,-73.97988067,2016-01-01T00:00:00,4
E 91 St & Park Ave,40.7835016,-73.955327,2016-01-01T00:00:00,4
1 Pl & Clinton St,40.6809591,-73.99905709,2016-01-01T00:00:00,4
Central Park West & W 102 St,40.795346,-73.96186,2016-01-01T00:00:00,4
Court St & State St,40.689,-73.99203074,2016-01-01T00:00:00,4
Henry St & Bay St,40.6725058,-74.00494695,2016-01-01T00:00:00,4
President St & Henry St,40.6828003,-73.99990419,2016-01-01T00:00:00,4
E 97 St & Madison Ave,40.787801,-73.953559,2016-01-01T00:00:00,4
Pier 40 - Hudson River Park,40.7277140777778,-74.011295735836029,2016-01-01T00:00:00,4
Van Brunt St & Wolcott St,40.6773429,-74.01275056,2016-01-01T00:00:00,4
Bergen St & Smith St,40.6867443,-73.99063168,2016-01-01T00:00:00,4
E 78 St & 2 Ave,40.7727966,-73.956,2016-01-01T00:00:00,4
W 92 St & Broadway,40.7921,-73.9739,2016-01-01T00:00:00,4
E 65 St & 2 Ave,40.764718519443392,-73.962220698595047,2016-01-01T00:00:00,4
Grand Army Plaza & Plaza St West,40.6729679,-73.97087984,2016-01-01T00:00:00,4
E 97 St & 3 Ave,40.7859201,-73.94860294,2016-01-01T00:00:00,4
E 91 St & 2 Ave,40.781122299341661,-73.95,2016-01-01T00:00:00,4
Riverside Dr & W 91 St,40.793134809866629,-73.977003693580627,2016-01-01T00:00:00,4
E 76 St & 3 Ave,40.772248537721744,-73.958421349525452,2016-01-01T00:00:00,4
Clinton St & Centre St,40.67434,-74.00194698,2016-01-01T00:00:00,4
Richardson St & N Henry St,40.719078911795641,-73.94223690032959,2016-01-01T00:00:00,4
Carroll St & 6 Ave,40.6740886,-73.9787282,2016-01-01T00:00:00,4
10 St & 5 Ave,40.6686273,-73.98700053,2016-01-01T00:00:00,4
W 42 St & Dyer Ave,40.758,-73.995,2016-01-01T00:00:00,4
5 Ave & E 93 St,40.7857851,-73.957481,2016-01-01T00:00:00,4
W 87 St & West End Ave,40.789622,-73.97757,2016-01-01T00:00:00,4
E 106 St & Madison Ave,40.7934337,-73.94945003,2016-01-01T00:00:00,4
5 Ave & E 88 St,40.782,-73.95939,2016-01-01T00:00:00,4
Bergen St & Flatbush Ave,40.680944723477296,-73.975673317909227,2016-01-01T00:00:00,4
4 Ave & 9 St,40.6705135,-73.98876585,2016-01-01T00:00:00,4
E 66 St & Madison Ave,40.768008893059474,-73.96845281124115,2016-01-01T00:00:00,4
9 Ave & W 28 St,40.749370241932773,-73.999233841896057,2016-01-01T00:00:00,4
Riverside Dr & W 104 St,40.8013434,-73.9711457439,2016-01-01T00:00:00,4
E 68 St & Madison Ave,40.7691572,-73.96703464,2016-01-01T00:00:00,4
Fulton St & Adams St,40.692418292578473,-73.989494740962982,2016-01-01T00:00:00,4
Carroll St & Columbia St,40.6830456,-74.00348559,2016-01-01T00:00:00,4
West End Ave & W 94 St,40.794,-73.974124,2016-01-01T00:00:00,4
Berkeley Pl & 7 Ave,40.674,-73.975232094526291,2016-01-01T00:00:00,4
Coffey St & Conover St,40.677236,-74.015665,2016-01-01T00:00:00,4
Cathedral Pkwy & Broadway,40.804213,-73.96699104,2016-01-01T00:00:00,4
E 109 St & 3 Ave,40.79329668,-73.9432083,2016-01-01T00:00:00,4
Pioneer St & Van Brunt St,40.679043,-74.011169,2016-01-01T00:00:00,4
E 106 St & 1 Ave,40.7892529,-73.93956237,2016-01-01T00:00:00,4
Carroll St & Smith St,40.68,-73.995,2016-01-01T00:00:00,4
Dean St & Hoyt St,40.6864442,-73.98759104,2016-01-01T00:00:00,4
Henry St & Degraw St,40.6847514,-73.99917254,2016-01-01T00:00:00,4
West End Ave & W 107 St,40.8021174,-73.9681805305,2016-01-01T00:00:00,4
Central Park W & W 96 St,40.791,-73.965,2016-01-01T00:00:00,4
5 Ave & 3 St,40.6728155,-73.98352355,2016-01-01T00:00:00,4
78 St & 2 Ave,40.7727966,-73.95577801,2016-01-01T00:00:00,4
Madison Ave & E 82 St,40.7781314,-73.96069399,2016-01-01T00:00:00,4
E 103 St & Lexington Ave,40.7903051,-73.94755757,2016-01-01T00:00:00,4
W 87 St  & Amsterdam Ave,40.78839,-73.9747,2016-01-01T00:00:00,4
Hanson Pl & Ashland Pl,40.685068073081773,-73.977907598018632,2016-01-01T00:00:00,4
Smith St & 9 St,40.6746957,-73.99785768,2016-01-01T00:00:00,4
3 Ave & E 71 St,40.76873687,-73.96119945,2016-01-01T00:00:00,4
Union St & 4 Ave,40.6772744,-73.98282002,2016-01-01T00:00:00,4
3 St & 7 Ave,40.6703837,-73.97839676,2016-01-01T00:00:00,4
Amsterdam Ave & W 79 St,40.782,-73.98,2016-01-01T00:00:00,4
W 37 St & Broadway,40.752270938374089,-73.987705707550049,2017-01-01T00:00:00,5
44 Dr & 21 St,40.748,-73.9460927,2017-01-01T00:00:00,5
W Broadway & Spring Street,40.724946723594158,-74.00165855884552,2017-01-01T00:00:00,5
E 118 St & 3 Ave,40.799139,-73.9389152,2017-01-01T00:00:00,5
Carlton Ave & Dean St,40.6809741,-73.9710097,2017-01-01T00:00:00,5
E 123 St & Lexington Ave,40.8029263,-73.9379,2017-01-01T00:00:00,5
W 15 St & 10 Ave,40.742753828659033,-74.007473587989807,2017-01-01T00:00:00,5
Sullivan Pl & Bedford Ave,40.6642406,-73.9574686,2017-01-01T00:00:00,5
36 Ave & 10 St,40.7614376,-73.9411265,2017-01-01T00:00:00,5
Vernon Blvd & 47 Rd,40.7449067,-73.9534573,2017-01-01T00:00:00,5
Park Pl & Vanderbilt Ave,40.6767,-73.969024,2017-01-01T00:00:00,5
Lenox Ave & W 126 St,40.808442,-73.9452087,2017-01-01T00:00:00,5
Franklin Ave & St Marks Ave,40.6758324,-73.9561677,2017-01-01T00:00:00,5
E 128 St & Madison Ave,40.80756,-73.939182,2017-01-01T00:00:00,5
Carroll St & Franklin Ave,40.6679411,-73.9588,2017-01-01T00:00:00,5
Crown St & Bedford Ave,40.666563,-73.956741,2017-01-01T00:00:00,5
27 Ave & 9 St,40.7739825,-73.9309134,2017-01-01T00:00:00,5
E 53 St & 3 Ave,40.757632277394428,-73.969305753707886,2017-01-01T00:00:00,5
Broadway & 12 St,40.7668,-73.9347774,2017-01-01T00:00:00,5
Frederick Douglass Blvd & W 112 St,40.801694,-73.957145,2017-01-01T00:00:00,5
GOW Tech Shop,40.66979964220026,-73.994979858398438,2017-01-01T00:00:00,5
Broadway & W 25 St,40.742868773121117,-73.98918628692627,2017-01-01T00:00:00,5
Pacific St & Classon Ave,40.6791944,-73.9587903,2017-01-01T00:00:00,5
St Johns Pl & Washington Ave,40.6737236,-73.9631611,2017-01-01T00:00:00,5
Broadway & W 122 St,40.8120562,-73.9612547,2017-01-01T00:00:00,5
21 St & 36 Ave,40.7601853,-73.9362726,2017-01-01T00:00:00,5
Expansion Warehouse 333 Johnson Ave,40.707731483954696,-73.934522867202759,2017-01-01T00:00:00,5
Center Blvd & 48 Ave,40.745038,-73.959,2017-01-01T00:00:00,5
Bayard St & Leonard St,40.719,-73.95,2017-01-01T00:00:00,5
1 Ave & E 110 St,40.7923272,-73.9383,2017-01-01T00:00:00,5
Lexington Ave & E 127 St,40.805726,-73.936322,2017-01-01T00:00:00,5
Bedford Ave & Bergen St,40.676368,-73.952918,2017-01-01T00:00:00,5
11 St & 43 Ave,40.7519071,-73.9479119,2017-01-01T00:00:00,5
Van Dyke St & Van Brunt St,40.675816225228317,-74.01488184928894,2017-01-01T00:00:00,5
27 Ave & 4 St,40.7747175,-73.9337894,2017-01-01T00:00:00,5
Park Pl & Franklin Ave,40.6741806,-73.9564947,2017-01-01T00:00:00,5
31 Ave & 34 St,40.763154,-73.920827,2017-01-01T00:00:00,5
Lenox Ave & W 130 St,40.8107922,-73.9430681,2017-01-01T00:00:00,5
St Nicholas Ave & Manhattan Ave,40.809725,-73.953149,2017-01-01T00:00:00,5
Sterling Pl & Bedford Ave,40.672695,-73.954131,2017-01-01T00:00:00,5
27 St & Hunter St,40.7485,-73.941275,2017-01-01T00:00:00,5
8D QC Station 01,45.506364054011385,-73.5694634914398,2017-01-01T00:00:00,5
Jackson St & Leonard St,40.716,-73.948212862014771,2017-01-01T00:00:00,5
31 St & Hoyt Ave N,40.7711528,-73.9170074,2017-01-01T00:00:00,5
W 129 St & Convent Ave,40.814394437915816,-73.953247368335724,2017-01-01T00:00:00,5
Mt Morris Park W & W 120 St,40.804038,-73.945925,2017-01-01T00:00:00,5
E 116 St & 2 Ave,40.796879,-73.938,2017-01-01T00:00:00,5
NYCBS Depot - RIS,40.725208,-73.974724,2017-01-01T00:00:00,5
E 82 St & East End Ave,40.772460677893967,-73.9468208,2017-01-01T00:00:00,5
NYCBS Depot - STY - Garage 4,40.7303801,-73.9747502,2017-01-01T00:00:00,5
37 Ave & 35 St,40.7531106,-73.9279917,2017-01-01T00:00:00,5
Crescent St & 34 Ave,40.76108,-73.930562,2017-01-01T00:00:00,5
Crescent St & Ditmars Blvd,40.7787185,-73.9145645,2017-01-01T00:00:00,5
Sterling St & Bedford Ave,40.6627059,-73.9569115,2017-01-01T00:00:00,5
3 Ave & E 112 St,40.795508,-73.941606,2017-01-01T00:00:00,5
Pleasant Ave & E 120 St,40.7974772,-73.9311847,2017-01-01T00:00:00,5
NYCBS Depot - STY - Valet Scan,0.0,0.0,2017-01-01T00:00:00,5
W 116 St & Amsterdam Ave,40.806,-73.962,2017-01-01T00:00:00,5
31 St & Northern Blvd,40.751869514218747,-73.933492898941026,2017-01-01T00:00:00,5
Newtown Ave & 23 St,40.7713615,-73.9246145,2017-01-01T00:00:00,5
Adam Clayton Powell Blvd & W 118 St,40.804372,-73.951475,2017-01-01T00:00:00,5
Eckford St & Engert Ave,40.721462562298157,-73.948009014129639,2017-01-01T00:00:00,5
35 Ave & 10 St,40.763154819103733,-73.939855098724365,2017-01-01T00:00:00,5
Amsterdam Ave & W 125 St,40.813358,-73.956461,2017-01-01T00:00:00,5
24 St & 41 Ave,40.752474,-73.939991,2017-01-01T00:00:00,5
Devoe St & Lorimer St,40.713,-73.95,2017-01-01T00:00:00,5
E 44 St & 2 Ave,40.751183874632773,-73.971387147903442,2017-01-01T00:00:00,5
34 Ave & 13 St,40.7638753,-73.9364848,2017-01-01T00:00:00,5
Convent Ave & W 129 St,40.81413,-73.953005,2017-01-01T00:00:00,5
Steinway St & 28 Ave,40.7656251,-73.9136695,2017-01-01T00:00:00,5
Underhill Ave & Lincoln Pl,40.6740123,-73.9671457,2017-01-01T00:00:00,5
Flushing Ave & Vanderbilt Ave,40.697950315695437,-73.970775604248047,2017-01-01T00:00:00,5
W 52 St & 6 Ave,40.761,-73.98,2017-01-01T00:00:00,5
43 St & Broadway,40.7577284,-73.9166368,2017-01-01T00:00:00,5
49 Ave & 21 St,40.74252,-73.95,2017-01-01T00:00:00,5
WS Don't Use,0.0,0.0,2017-01-01T00:00:00,5
Leonard St & Maujer St,40.7103685423523,-73.947059512138367,2017-01-01T00:00:00,5
Schermerhorn St & 3 Ave,40.686808205034318,-73.980361819267273,2017-01-01T00:00:00,5
Pacific St & Bedford Ave,40.6777747,-73.9529322,2017-01-01T00:00:00,5
W 116 St & Broadway,40.8082,-73.9641,2017-01-01T00:00:00,5
Bergen St & Vanderbilt Ave,40.6794388,-73.9680438,2017-01-01T00:00:00,5
31 Ave & Crescent St,40.7658346,-73.9265474,2017-01-01T00:00:00,5
E 12 St & Avenue B,40.728048571362606,-73.978811502456665,2017-01-01T00:00:00,5
34 Ave & 21 St,40.7628138,-73.9342862,2017-01-01T00:00:00,5
11 St & 35 Ave,40.7627442,-73.9391141,2017-01-01T00:00:00,5
E 98 St & Lexington Ave,40.787285198609517,-73.950122594833374,2017-01-01T00:00:00,5
NYCBS DEPOT - DELANCEY,40.716444231344788,-73.9823305606842,2017-01-01T00:00:00,5
Norman Ave & Leonard St - 2,40.7258483,-73.95064893,2017-01-01T00:00:00,5
28 St & 40 Ave,40.7525758,-73.9364281,2017-01-01T00:00:00,5
Crescent St & 30 Ave,40.768692,-73.9249574,2017-01-01T00:00:00,5
Classon Ave & St Marks Ave,40.6765198,-73.9596082,2017-01-01T00:00:00,5
E 118 St & 1 Ave,40.79747,-73.93504,2017-01-01T00:00:00,5
Picnic Point,40.685125595154148,-74.025353193283081,2017-01-01T00:00:00,5
Riverside Dr & W 89 St,40.791811715010972,-73.9786022901535,2017-01-01T00:00:00,5
48 Ave & 30 Pl,40.741283093559929,-73.937258720397935,2017-01-01T00:00:00,5
E 114 St & 1 Ave,40.7945663,-73.9362541,2017-01-01T00:00:00,5
Carroll St & Washington Ave,40.6686744,-73.9618148,2017-01-01T00:00:00,5
5 Ave & E 126 St,40.80698,-73.941747,2017-01-01T00:00:00,5
31 St & Broadway,40.761584,-73.925921,2017-01-01T00:00:00,5
31 St & 35 Ave,40.758204646967577,-73.928321599960327,2017-01-01T00:00:00,5
19 St & 24 Ave,40.7774552,-73.9225403,2017-01-01T00:00:00,5
2 Ave & E 122 St,40.8006721,-73.9349,2017-01-01T00:00:00,5
W 113 St & Broadway,40.805973,-73.965,2017-01-01T00:00:00,5
40 Ave & 9 St,40.75742,-73.945133,2017-01-01T00:00:00,5
LPI Facility,0.0,0.0,2017-01-01T00:00:00,5
Rogers Ave & Sterling St,40.6630619,-73.9538746,2017-01-01T00:00:00,5
Penn Station Valet - Valet Scan,40.7512836,-73.9969245,2017-01-01T00:00:00,5
Eastern Pkwy & Franklin Ave,40.6707767,-73.959,2017-01-01T00:00:00,5
Madison Ave & E 120 St,40.80295,-73.942954,2017-01-01T00:00:00,5
21 St & 31 Dr,40.7659,-73.930819,2017-01-01T00:00:00,5
333 Johnson TEST 1,0.0,0.0,2017-01-01T00:00:00,5
Park Ave & E 124 St,40.8045555,-73.9396861,2017-01-01T00:00:00,5
E 118 St & Madison Ave,40.8014866,-73.9442507,2017-01-01T00:00:00,5
Crescent St & 35 Ave,40.7596276,-73.9321455,2017-01-01T00:00:00,5
W 87 St & Amsterdam Ave,40.78839,-73.9747,2017-01-01T00:00:00,5
28 St & 38 Ave,40.754876,-73.934326,2017-01-01T00:00:00,5
10 Hudson Yards,40.752957,-74.00264,2017-01-01T00:00:00,5
St. Nicholas Ave & W 126 St,40.8114323,-73.9518776,2017-01-01T00:00:00,5
24 Ave & 26 St,40.774591,-73.918544,2017-01-01T00:00:00,5
India St & West St,40.731,-73.95995020866394,2017-01-01T00:00:00,5
Astoria Park S & Shore Blvd,40.776,-73.929,2017-01-01T00:00:00,5
W 36 St & 9 Ave,40.754623240291053,-73.99516761302948,2017-01-01T00:00:00,5
Frederick Douglass Blvd & W 117 St,40.805159,-73.954692,2017-01-01T00:00:00,5
Dwight St & Van Dyke St,40.673635513415043,-74.011955559253693,2017-01-01T00:00:00,5
Vernon Blvd & 31 Ave,40.7692475,-73.9354504,2017-01-01T00:00:00,5
E 41 St & 5 Ave,40.752722013811884,-73.981236219406128,2017-01-01T00:00:00,5
Hs Don't Use,40.719251707409889,-74.03423398733139,2017-01-01T00:00:00,5
E 2 St & 2 Ave E,40.7245634290432,-73.9894437789917,2017-01-01T00:00:00,5
35 St & Broadway,40.760339,-73.9222427,2017-01-01T00:00:00,5
Frederick Douglass Blvd & W 129 St,40.8125511,-73.9492286,2017-01-01T00:00:00,5
23 Ave & 27 St,40.776165,-73.9153175,2017-01-01T00:00:00,5
Prospect Pl & Underhill Ave,40.6769694,-73.96579,2017-01-01T00:00:00,5
Sigourney St & Columbia St,40.672672434109479,-74.0087952464819,2017-01-01T00:00:00,5
Newton Rd & 44 St,40.7595701,-73.9142678,2017-01-01T00:00:00,5
Crescent St & Broadway,40.7633589,-73.9286471,2017-01-01T00:00:00,5
35 Ave & 37 St,40.7557327,-73.9236611,2017-01-01T00:00:00,5
34 St & 35 Ave,40.7569332,-73.9262231,2017-01-01T00:00:00,5
34 Ave & 38 St,40.756913,-73.921631,2017-01-01T00:00:00,5
28 Ave & 35 St,40.7671,-73.9169858,2017-01-01T00:00:00,5
6 Ave & Spring St,40.7252556952547,-74.004120826721191,2017-01-01T00:00:00,5
Cooper Square & Astor Pl,40.729514962249489,-73.992,2017-01-01T00:00:00,5
Lincoln Pl & Classon Ave,40.6721683,-73.9609,2017-01-01T00:00:00,5
Union St & Bedford Ave,40.6691783,-73.9554162,2017-01-01T00:00:00,5
Lenox Ave & W 115 St,40.8,-73.9500739,2017-01-01T00:00:00,5
Expansion Tech Station,40.669801930896163,-73.994904756546021,2017-01-01T00:00:00,5
24 Ave & 29 St,40.7729,-73.916142,2017-01-01T00:00:00,5
Murray St & Greenwich St,40.714851505262523,-74.011223316192627,2017-01-01T00:00:00,5
NYCBS Depot - GOW,40.669060135011073,-73.994636535644531,2017-01-01T00:00:00,5
E 115 St & Madison Ave,40.7989445,-73.944846,2017-01-01T00:00:00,5
31 Ave & 14 St,40.7682,-73.9322662,2017-01-01T00:00:00,5
31 St & Astoria Blvd,40.7699176,-73.9184057,2017-01-01T00:00:00,5
Schermerhorn St & Bond St,40.688417427540834,-73.986,2017-01-01T00:00:00,5
E 58 St & Madison Ave,40.763025942805193,-73.972095251083374,2017-01-01T00:00:00,5
Underhill Ave & Pacific St,40.6804836,-73.9646795,2017-01-01T00:00:00,5
W 55 St & 6 Ave,40.763093872707969,-73.978458,2017-01-01T00:00:00,5
Lexington Ave & E 111 St,40.7954121,-73.9441232,2017-01-01T00:00:00,5
E 93 St & 2 Ave,40.782454175279874,-73.9489196240902,2017-01-01T00:00:00,5
Eastern Pkwy & Washington Ave,40.6716493,-73.9631145,2017-01-01T00:00:00,5
Steinway St & 23 Ave,40.7713937,-73.9077436,2017-01-01T00:00:00,5
Amsterdam Ave & W 119 St,40.8086249,-73.9596214,2017-01-01T00:00:00,5
Gowanus Tech Station,40.669801930896163,-73.994904756546021,2017-01-01T00:00:00,5
2 Ave & E 96 St,40.7839636,-73.9471673,2017-01-01T00:00:00,5
2 Ave & E 104 St,40.7892105,-73.94370784,2017-01-01T00:00:00,5
E 118 St & Park Ave,40.8005385,-73.9419949,2017-01-01T00:00:00,5
Vernon Blvd & 41 Rd,40.7552433,-73.9485678,2017-01-01T00:00:00,5
2 Ave & 36 St - Citi Bike HQ at Industry City,40.657088666684849,-74.008702039718628,2017-01-01T00:00:00,5
Montgomery St & Franklin Ave OLD,40.6661649,-73.9593484,2017-01-01T00:00:00,5
30 Ave & 21 St,40.7703743,-73.9286078,2017-01-01T00:00:00,5
Grand Ave & Bergen St,40.678045,-73.962408,2017-01-01T00:00:00,5
31 St & 23 Ave,40.7747878,-73.9125551,2017-01-01T00:00:00,5
E 115 St & Lexington Ave,40.797911,-73.9423,2017-01-01T00:00:00,5
Adam Clayton Powell Blvd & W 115 St,40.802535,-73.9532423,2017-01-01T00:00:00,5
Vernon Blvd & 10 St,40.7671863,-73.9373554,2017-01-01T00:00:00,5
Vernon Blvd & 30 Rd,40.770845,-73.934171,2017-01-01T00:00:00,5
Gold St & Frankfort St,40.710699946313873,-74.003541469573975,2017-01-01T00:00:00,5
28 St & 41 Ave,40.751047,-73.93797,2017-01-01T00:00:00,5
35 St & 34 Ave,40.758,-73.9242751,2017-01-01T00:00:00,5
37 St & 24 Ave,40.7701477,-73.9120938,2017-01-01T00:00:00,5
Lenox Ave & W 111 St,40.7987859,-73.9523,2017-01-01T00:00:00,5
28 St & 36 Ave,40.757186,-73.932719,2017-01-01T00:00:00,5
Lexington Ave & E 120 St,40.8,-73.941,2017-01-01T00:00:00,5
Morningside Dr & Amsterdam Ave,40.810285063060029,-73.957364559173584,2017-01-01T00:00:00,5
JSQ Don't Use,0.0,0.0,2017-01-01T00:00:00,5
21 St & 38 Ave,40.7576314,-73.9391224,2017-01-01T00:00:00,5
Morningside Ave & W 123 St,40.81,-73.9551508,2017-01-01T00:00:00,5
39 St & 2 Ave - Citi Bike HQ at Industry City,40.655399774478312,-74.010627865791321,2017-01-01T00:00:00,5
31 Ave & 30 St,40.7647,-73.9240312,2017-01-01T00:00:00,5
W 120 St & Claremont Ave,40.8109494,-73.9634,2017-01-01T00:00:00,5
Ditmars Blvd & 19 St,40.78145,-73.9183302,2017-01-01T00:00:00,5
Broadway & Moylan Pl,40.8143256,-73.9590255,2017-01-01T00:00:00,5
W 110 St & Amsterdam Ave,40.802692,-73.96295,2017-01-01T00:00:00,5
E 71 St & 1 Ave,40.76703432309872,-73.95622730255127,2017-01-01T00:00:00,5
"Industry City, Building 1 Basement",40.655949177839751,-74.008358716964722,2017-01-01T00:00:00,5
21 St & Hoyt Ave S,40.774645,-73.923706,2017-01-01T00:00:00,5
Franklin Ave & Empire Blvd,40.66314,-73.9605695,2017-01-01T00:00:00,5
Pleasant Ave & E 116 St,40.7949879,-73.9333349,2017-01-01T00:00:00,5
Adam Clayton Powell Blvd & W 123 St,40.8078316,-73.95,2017-01-01T00:00:00,5
8D Mobile 01,45.505850638767228,-73.569109439849854,2017-01-01T00:00:00,5
E 81 St & 2 Ave,40.774779448957283,-73.954274654388428,2018-01-01T00:00:00,6
Henry St & W 9 St (OLD),40.67630357634183,-74.003140479326248,2018-01-01T00:00:00,6
28 Ave & 44 St,40.76408932350688,-73.910651206970215,2018-01-01T00:00:00,6
2 Ave & E 55 St,40.757920208794026,-73.966382145881653,2018-01-01T00:00:00,6
3 Ave & E 95 St,40.784596798848924,-73.949685394763947,2018-01-01T00:00:00,6
31 Ave & Steinway St,40.7611488,-73.9170071,2018-01-01T00:00:00,6
W 17 St & 9 Ave,40.742948916600909,-74.004136919975281,2018-01-01T00:00:00,6
Gansevoort St & Hudson St,40.739448201304043,-74.005070328712463,2018-01-01T00:00:00,6
Driggs Ave & N 9 St,40.718169694542077,-73.956,2018-01-01T00:00:00,6
Prospect Park - 5 Year Anniversary Celebration,40.66065236872916,-73.9645904302597,2018-01-01T00:00:00,6
Adam Clayton Powell Blvd & W 126 St,40.809495347779482,-73.947764933109283,2018-01-01T00:00:00,6
W 18 St & 9 Ave,40.7435337324616,-74.003675580024719,2018-01-01T00:00:00,6
E 2 St & Avenue A,40.722,-73.986,2018-01-01T00:00:00,6
Division Av & Hooper St,40.706842031013252,-73.9544353965357,2018-01-01T00:00:00,6
W 16 St & 8 Ave,40.741021509002657,-74.001384973526,2018-01-01T00:00:00,6
Dean St & Franklin Ave,40.677592069373759,-73.955637216568,2018-01-01T00:00:00,6
E 11 St & Avenue B,40.727464206923919,-73.979504182934761,2018-01-01T00:00:00,6
Henry St & W 9 St [old],40.6763744,-74.00324957,2018-01-01T00:00:00,6
40 Ave & Crescent St,40.7535992020056,-73.937956094741821,2018-01-01T00:00:00,6
Jay St & York St,40.701403172577251,-73.986726701259613,2018-01-01T00:00:00,6
Sterling Pl & 7 Ave,40.677164894690591,-73.973827958107,2018-01-01T00:00:00,6
Wyckoff St & Bond St,40.68461653897949,-73.987212851643562,2018-01-01T00:00:00,6
E 43 St & 5 Ave,40.754120810779256,-73.980251848697662,2018-01-01T00:00:00,6
W 35 St & Dyer Ave,40.754691750226016,-73.997401893138885,2018-01-01T00:00:00,6
5 St & 51 Ave,40.7423737,-73.9566,2018-01-01T00:00:00,6
old - E 13 St & Avenue A,40.72955361,-73.98057249,2018-01-01T00:00:00,6
Leonard St & Nassau Ave,40.7239567849954,-73.95,2018-01-01T00:00:00,6
47 Ave & Skillman Ave,40.7437524099784,-73.941764831542969,2018-01-01T00:00:00,6
Thompson St & Bleecker St,40.728400594508287,-73.999687805771828,2018-01-01T00:00:00,6
Handlebar @ Gowanus,40.66979964220026,-73.994979858398438,2018-01-01T00:00:00,6
W 15 St & 6 Ave,40.738046142482766,-73.996429592370987,2018-01-01T00:00:00,6
,40.839,-73.923,2018-01-01T00:00:00,6
Prototype Lab Motivate Headquarters,40.656595674820387,-74.008492827415466,2018-01-01T00:00:00,6
S Portland Ave & Atlantic Ave,40.683222541615947,-73.9738118648529,2018-01-01T00:00:00,6
31 St & Newtown Ave,40.7675487799971,-73.9209334552288,2018-01-01T00:00:00,6
Cliff St & Fulton St_1,40.70823502,-74.00530063,2018-01-01T00:00:00,6
5 St & Market St,40.6999974843885,-73.974401280283928,2018-01-01T00:00:00,6
W 104 St & Amsterdam Ave - 1,40.7989937,-73.9662173778,2018-01-01T00:00:00,6
32 St & 30 Ave,40.7664255270288,-73.920629024505615,2018-01-01T00:00:00,6
Lenox Ave & W 117 St,40.8025566,-73.9490782,2018-01-01T00:00:00,6
N 11 St & Kent Ave,40.722481886382191,-73.959219306707382,2018-01-01T00:00:00,6
W 12 St & W 4 St,40.737561211811368,-74.003982692956924,2018-01-01T00:00:00,6
W 45 St & 6 Ave (OLD),40.756687206031792,-73.982577323913574,2018-01-01T00:00:00,6
E 87 St & 3 Ave,40.779406085297872,-73.953335881233215,2018-01-01T00:00:00,6
Frederick Douglass Blvd & W 115 St,40.803,-73.956,2018-01-01T00:00:00,6
W 13 St & 5 Ave -moved to 5947.04,40.73543934,-73.99453948,2018-01-01T00:00:00,6
W 64 St & Thelonious Monk Circle,40.77515953434235,-73.989186957478523,2018-01-01T00:00:00,6
W 50 St & 9 Ave,40.763604677958632,-73.989179581403732,2018-01-01T00:00:00,6
Apache,40.669767091850026,-73.994743824005127,2018-01-01T00:00:00,6
Van Brunt St & Van Dyke St,40.6758329439129,-74.014726281166077,2018-01-01T00:00:00,6
Montgomery St & Franklin Ave,40.666439306870814,-73.9605563879013,2018-01-01T00:00:00,6
Smart Cities Conference,40.710154710949119,-73.984535336494432,2018-01-01T00:00:00,6
North Moore St & Greenwich St,40.720195214374648,-74.0103006362915,2018-01-01T00:00:00,6
E 98 St & Park Ave,40.78813,-73.95206,2018-01-01T00:00:00,6
E 5 St & 2 Ave,40.726869515282068,-73.989190310239792,2018-01-01T00:00:00,6
Perry St & Greenwich Ave,40.735918,-74.000939,2019-01-01T00:00:00,7
W 47 St & 6 Ave,40.758397,-73.98255,2019-01-01T00:00:00,7
Hancock St & Wyckoff Ave,40.6972,-73.90674,2019-01-01T00:00:00,7
Evergreen Ave & Noll St,40.701,-73.93318,2019-01-01T00:00:00,7
Harrison Pl & Porter Ave,40.70686,-73.929,2019-01-01T00:00:00,7
Central Ave & Flushing Ave,40.702831,-73.9333,2019-01-01T00:00:00,7
6 Ave & W 34 St,40.74964,-73.98805,2019-01-01T00:00:00,7
Linden St & Knickerbocker Ave,40.69714,-73.91566,2019-01-01T00:00:00,7
Division St & Bowery (old),40.71413089,-73.9970468,2019-01-01T00:00:00,7
Central Ave & Woodbine St,40.69296,-73.91605,2019-01-01T00:00:00,7
Green St & McGuinness Blvd,40.73396,-73.95204,2019-01-01T00:00:00,7
Central Ave & Decatur St,40.6882,-73.90798,2019-01-01T00:00:00,7
Madison St & Seneca Ave,40.70183,-73.90625,2019-01-01T00:00:00,7
Morgan Ave & Lombardy St,40.72226,-73.93889,2019-01-01T00:00:00,7
38 Ave & 29 St,40.75473,-73.93367,2019-01-01T00:00:00,7
Putnam Ave & Knickerbocker Ave,40.69545,-73.91164,2019-01-01T00:00:00,7
Beaver St & Fayette St,40.70099,-73.93921,2019-01-01T00:00:00,7
White St & Moore St,40.704508,-73.9351,2019-01-01T00:00:00,7
Broadway & Hancock St,40.68663,-73.9168,2019-01-01T00:00:00,7
Irving Ave & Halsey St,40.69467,-73.90663,2019-01-01T00:00:00,7
1 Ave & E 5 St,40.725864,-73.986389,2019-01-01T00:00:00,7
Devoe St & Morgan Ave,40.713811,-73.93515,2019-01-01T00:00:00,7
Menahan St & Central Ave,40.69543,-73.9196,2019-01-01T00:00:00,7
W 40 St & 5 Ave,40.752,-73.983,2019-01-01T00:00:00,7
Central Ave & Melrose St,40.70112,-73.93039,2019-01-01T00:00:00,7
Fairview Ave & Linden St,40.70694,-73.90632,2019-01-01T00:00:00,7
Cypress Ave & George St,40.69812,-73.90271,2019-01-01T00:00:00,7
Lorimer St & Calyer St,40.72795,-73.95414,2019-01-01T00:00:00,7
Menahan St & Seneca Ave,40.70461,-73.91054,2019-01-01T00:00:00,7
Menahan St & Wyckoff Ave,40.70113,-73.91422,2019-01-01T00:00:00,7
Broadway & Kosciuszko St,40.69329,-73.92852,2019-01-01T00:00:00,7
Lafayette St & Jersey St S,40.724305272503322,-73.996009826660156,2019-01-01T00:00:00,7
Somers St & Broadway,40.67945,-73.90474,2019-01-01T00:00:00,7
Menahan St & Onderdonk Ave,40.70553,-73.9096,2019-01-01T00:00:00,7
Willoughby Ave & Onderdonk Ave,40.7098,-73.91727,2019-01-01T00:00:00,7
E 58 St & 1 Ave (NE Corner),40.75892386377695,-73.962262272834778,2019-01-01T00:00:00,7
Battery Pl & Greenwich St,40.70463,-74.01507,2019-01-01T00:00:00,7
Wyckoff St & Nevins St,40.683426,-73.984275,2019-01-01T00:00:00,7
Knickerbocker Ave & George St,40.704425,-73.92836,2019-01-01T00:00:00,7
Madison St & Cypress Ave,40.70068,-73.90742,2019-01-01T00:00:00,7
Centre St & Seneca Ave,40.69969,-73.9022,2019-01-01T00:00:00,7
Irving Ave & DeKalb Ave,40.7027,-73.92095,2019-01-01T00:00:00,7
Stagg St & Morgan Ave,40.710681,-73.93372,2019-01-01T00:00:00,7
Engert Ave & McGuinness Blvd,40.72158,-73.94546,2019-01-01T00:00:00,7
Sharon St & Olive St,40.715353,-73.93856,2019-01-01T00:00:00,7
Knickerbocker Ave & Cooper St,40.69081,-73.90448,2019-01-01T00:00:00,7
Woodward Ave & Harman St,40.70793,-73.91092,2019-01-01T00:00:00,7
Van Sinderen Ave & Truxton St,40.6786,-73.90369,2019-01-01T00:00:00,7
Frost St & Meeker Ave,40.717661970839941,-73.948800265789032,2019-01-01T00:00:00,7
Irving Ave & Jefferson St,40.704,-73.926,2019-01-01T00:00:00,7
Kent St & McGuinness Blvd,40.73124,-73.95161,2019-01-01T00:00:00,7
Front St & Jay St,40.702461,-73.986842,2019-01-01T00:00:00,7
Jefferson Ave & Evergreen Ave,40.68989,-73.91458,2019-01-01T00:00:00,7
Stanton St & Norfolk St,40.720747,-73.986274,2019-01-01T00:00:00,7
E 63 St & 3 Ave,40.763954,-73.9646,2019-01-01T00:00:00,7
2 Ave & E 72 St,40.7687620293096,-73.958407938480377,2019-01-01T00:00:00,7
Flushing Ave & Woodward Ave,40.71246,-73.92,2019-01-01T00:00:00,7
Withers St & Kingsland Ave,40.71773,-73.94051,2019-01-01T00:00:00,7
Madison St & Woodward Ave,40.704,-73.905,2019-01-01T00:00:00,7
Cedar St & Evergreen Ave,40.69671,-73.92807,2019-01-01T00:00:00,7
Cliff St & Fulton St (Old),40.708317943663957,-74.005040824413285,2019-01-01T00:00:00,7
Broadway & Madison St,40.68822,-73.91966,2019-01-01T00:00:00,7
Metropolitan Ave & Vandervoort Ave,40.71429,-73.93323,2019-01-01T00:00:00,7
Central Ave & Covert St,40.68929,-73.90951,2019-01-01T00:00:00,7
Melrose St & Broadway,40.697481,-73.935877,2019-01-01T00:00:00,7
Moffat St & Bushwick,40.68458,-73.90925,2019-01-01T00:00:00,7
E 84 St & 3 Ave,40.777553742988871,-73.955127596855164,2019-01-01T00:00:00,7
Wyckoff Av & Jefferson St,40.707,-73.923711,2019-01-01T00:00:00,7
Broadway & Furman Ave,40.68139,-73.90756,2019-01-01T00:00:00,7
Wilson Ave & Moffat St,40.68906,-73.90506,2019-01-01T00:00:00,7
Bushwick Ave & Dekalb Ave,40.69502,-73.92825,2019-01-01T00:00:00,7
Greene Ave & Grandview Ave,40.709697,-73.907856,2019-01-01T00:00:00,7
Morgan Ave & Maspeth Ave,40.716,-73.93637,2019-01-01T00:00:00,7
Frost St & Debevoise Ave,40.71882,-73.93948,2019-01-01T00:00:00,7
Central Ave & Weirfield St,40.69055,-73.91181,2019-01-01T00:00:00,7
Cadman Plaza E & Johnson St,40.695,-73.990157246589661,2019-01-01T00:00:00,7
Kingsland Ave & Nassau Ave,40.72577,-73.94173,2019-01-01T00:00:00,7
Metropolitan Ave & Stewart Ave,40.71401,-73.92793,2019-01-01T00:00:00,7
Greene Av & Myrtle Av,40.698568,-73.918877,2019-01-01T00:00:00,7
Henry St & Middagh St,40.7003,-73.991581,2019-01-01T00:00:00,7
Cypress Ave & Palmetto St,40.701573408737922,-73.90876293182373,2019-01-01T00:00:00,7
Halsey St & Broadway,40.68565,-73.917,2019-01-01T00:00:00,7
Myrtle Ave & Grove St,40.69905,-73.91516,2019-01-01T00:00:00,7
White St & Johnson Ave,40.707174,-73.93581,2019-01-01T00:00:00,7
E 58 St &  1 Ave (NW Corner),40.758,-73.962658,2019-01-01T00:00:00,7
Dock 72 Way & Market St,40.69985,-73.97141,2019-01-01T00:00:00,7
Irving Ave & Palmetto St,40.698,-73.9127,2019-01-01T00:00:00,7
Central Park West & W 82 St,40.782593,-73.971211,2019-01-01T00:00:00,7
McKibbin St & Bogart St,40.706237,-73.935,2019-01-01T00:00:00,7
Fulton St & Irving Pl,40.68186,-73.959432,2019-01-01T00:00:00,7
W 42 St & 6 Ave,40.75492,-73.986,2019-01-01T00:00:00,7
Willoughby Ave & Myrtle Ave,40.69757,-73.93098,2019-01-01T00:00:00,7
10 St & 2 Ave,40.671907,-73.993612,2019-01-01T00:00:00,7
12 Ave & W 125 St,40.818299,-73.960405,2019-01-01T00:00:00,7
Myrtle Ave & Linden St,40.69943,-73.91337,2019-01-01T00:00:00,7
Irving Ave & Harman St,40.70108,-73.9179,2019-01-01T00:00:00,7
Madison St & Forest Ave,40.70555,-73.90245,2019-01-01T00:00:00,7
Knickerbocker Ave & Thames St,40.70539,-73.92976,2019-01-01T00:00:00,7
E 51 St & 2 Ave,40.755293,-73.967641,2019-01-01T00:00:00,7
Suydam St & Broadway,40.69544,-73.93223,2019-01-01T00:00:00,7
Van Buren St & Broadway,40.692,-73.92617,2019-01-01T00:00:00,7
Suydam St & St. Nicholas Ave,40.70636,-73.91945,2019-01-01T00:00:00,7
Bushwick Ave & Stagg St,40.709897,-73.94008,2019-01-01T00:00:00,7
Willoughby Ave & Wyckoff Ave,40.705614,-73.92153,2019-01-01T00:00:00,7
Suydam St & Knickerbocker Ave,40.702013,-73.923769,2019-01-01T00:00:00,7
Norman St & Wyckoff Ave,40.69517,-73.90311,2019-01-01T00:00:00,7
George St & Wilson Ave,40.702997,-73.92997,2019-01-01T00:00:00,7
Forest Ave & Summerfield St,40.698,-73.899,2019-01-01T00:00:00,7
Bedford Ave & Montgomery St,40.665816,-73.956934,2019-01-01T00:00:00,7
58th St Depot,40.716909780459652,-73.983837962150574,2019-01-01T00:00:00,7
Stockholm St & Wilson Ave,40.699304,-73.923044,2019-01-01T00:00:00,7
Stuyvesant Walk & 1 Av Loop,40.732339777151054,-73.978983834385872,2019-01-01T00:00:00,7
E 12 St & 4 Av,40.73269,-73.98974,2019-01-01T00:00:00,7
Halsey St & Evergreen Ave,40.68858,-73.91227,2019-01-01T00:00:00,7
Onderdonk Ave & Dekalb Ave,40.70863,-73.91497,2019-01-01T00:00:00,7
Eldert St & Bushwick Ave,40.686,-73.914,2019-01-01T00:00:00,7
Bushwick Ave & Furman Ave,40.68281,-73.90623,2019-01-01T00:00:00,7
W 45 St & 6 Ave -,40.756687206031792,-73.982577323913574,2019-01-01T00:00:00,7
Calyer St & Jewel St,40.72984,-73.94839,2019-01-01T00:00:00,7
W Broadway & W Houston St,40.726378,-74.000472,2019-01-01T00:00:00,7
Hart St & Wyckoff Ave,40.704876,-73.919911,2019-01-01T00:00:00,7
Grove St & Broadway,40.69047,-73.923511,2019-01-01T00:00:00,7
Central Ave & Starr Street,40.700003,-73.92834,2019-01-01T00:00:00,7
Cedar St & Myrtle Ave,40.697842,-73.926241,2019-01-01T00:00:00,7
Putnam Ave & Wyckoff Ave,40.69811,-73.90904,2019-01-01T00:00:00,7
7 Ave & Central Park South,40.7667405590595,-73.98,2019-01-01T00:00:00,7
Waterbury St & Stagg St,40.71019,-73.93734,2019-01-01T00:00:00,7
E 80 St & Park Ave,40.776173,-73.959757,2019-01-01T00:00:00,7
DeKalb Ave & Franklin Ave,40.690648070829432,-73.957461789250374,2019-01-01T00:00:00,7
Pierrepont St & Monroe Pl,40.695356933202248,-73.993440270423889,2019-01-01T00:00:00,7
Bushwick Ave & Forrest St,40.70076,-73.93641,2019-01-01T00:00:00,7
Central Ave & Himrod St,40.69676,-73.92302,2019-01-01T00:00:00,7
Manhattan Av & Leonard St,40.72084,-73.94844,2019-01-01T00:00:00,7
Onderdonk Ave & Gates Ave,40.70413,-73.90737,2019-01-01T00:00:00,7
Stephen St & Seneca Ave,40.6988,-73.9007,2019-01-01T00:00:00,7
Knickerbocker Ave & Hancock St,40.69385,-73.90974,2019-01-01T00:00:00,7
Knickerbocker Ave & Halsey St,40.693,-73.90824,2019-01-01T00:00:00,7
Powers St & Olive St,40.71323,-73.93894,2019-01-01T00:00:00,7
Rockaway Ave & Bainbridge St,40.68319988172761,-73.911666423082352,2019-01-01T00:00:00,7
Stewart Ave & Johnson Ave,40.70869,-73.92587,2019-01-01T00:00:00,7
Bushwick Ave & Harman St,40.69356,-73.92524,2019-01-01T00:00:00,7
3 Ave & Carroll St,40.677027,-73.9865,2019-01-01T00:00:00,7
Jefferson St & Cypress Ave,40.70907,-73.923,2019-01-01T00:00:00,7
Harman St & Seneca Ave,40.70577,-73.91292,2019-01-01T00:00:00,7
Center Blvd & 51 Ave,40.743366080270206,-73.959606885910034,2019-01-01T00:00:00,7
Wilson Ave & Troutman St,40.70166,-73.92754,2019-01-01T00:00:00,7
Wyckoff Av & Stanhope St,40.703545,-73.917775,2019-01-01T00:00:00,7
36 Ave & 31 St,40.756512729849547,-73.929574862122521,2019-01-01T00:00:00,7
Stanhope St & Fairview Ave,40.70998,-73.91116,2019-01-01T00:00:00,7
27 Ave & 3 St,40.77485,-73.9342,2019-01-01T00:00:00,7
Bushwick Ave & McKibbin St,40.705517,-73.93936,2019-01-01T00:00:00,7
Madison St & Evergreen Ave,40.69122,-73.91693,2019-01-01T00:00:00,7
Bushwick Ave & Linden St,40.69146,-73.92146,2019-01-01T00:00:00,7
Avenue C & E 18 St,40.730563,-73.973984,2019-01-01T00:00:00,7
Lexington Ave & E 36 St,40.7475739589548,-73.9788007736206,2019-01-01T00:00:00,7
Motorgate,40.7639089,-73.9477213,2020-01-01T00:00:00,8
E 149 St & Park Ave,40.818154,-73.925294,2020-01-01T00:00:00,8
Broadway & W 165 St,40.839137,-73.941409,2020-01-01T00:00:00,8
Avenue D & E 10 St,40.725065510154749,-73.975158333778381,2020-01-01T00:00:00,8
E 12 St & Ave C,40.727243,-73.976831,2020-01-01T00:00:00,8
E 161 St & River Ave,40.827883,-73.927111,2020-01-01T00:00:00,8
E 163 St & Tiffany St,40.821075,-73.895069,2020-01-01T00:00:00,8
Avenue D & E 8 St (home location),40.72368361,-73.97574813,2020-01-01T00:00:00,8
Sullivan Pl & Franklin Ave,40.66407983678161,-73.960251286666789,2020-01-01T00:00:00,8
St. Nicholas Ave & W 155 St,40.830663,-73.941323,2020-01-01T00:00:00,8
Broadway & W 131 St,40.817555,-73.957163,2020-01-01T00:00:00,8
Courtlandt Ave & E 157 St,40.822267,-73.916792,2020-01-01T00:00:00,8
Convent Ave & W 135 St,40.818215,-73.950988,2020-01-01T00:00:00,8
OLD Southern Blvd & E 142 St,40.807258,-73.907999,2020-01-01T00:00:00,8
5 Av & W 139 St,40.815484,-73.935856,2020-01-01T00:00:00,8
St. Ann's Av & Bruckner Blvd,40.803399,-73.919763,2020-01-01T00:00:00,8
Alexander Ave & E 134 St,40.807466,-73.927107,2020-01-01T00:00:00,8
Madison Ave & E 26 St,40.742684734875695,-73.986713290214539,2020-01-01T00:00:00,8
Frederick Douglass Blvd & W 145 St,40.823061,-73.941928,2020-01-01T00:00:00,8
West Farms Rd & Boone Ave,40.830025,-73.886312,2020-01-01T00:00:00,8
Riverside Dr & W 148 St,40.829114,-73.950426,2020-01-01T00:00:00,8
River Ave & E 153 St,40.82441,-73.92818,2020-01-01T00:00:00,8
Cabrini Blvd & W 177 St,40.848282,-73.941343,2020-01-01T00:00:00,8
Brook Ave & E 148 St,40.814383,-73.915368,2020-01-01T00:00:00,8
Willis Ave & Bruckner Blvd,40.805701,-73.925177,2020-01-01T00:00:00,8
E 142 St & 3 Ave,40.812,-73.923697,2020-01-01T00:00:00,8
E 134 St & Walnut Ave,40.800425,-73.911034,2020-01-01T00:00:00,8
3 Ave & Franklin Ave,40.82696,-73.907451,2020-01-01T00:00:00,8
W 10 St & Washington St,40.73342399437081,-74.008514955639839,2020-01-01T00:00:00,8
W 50 St & 10 Ave,40.764734200065192,-73.991943597793579,2020-01-01T00:00:00,8
Lenox Ave & W 146 St,40.821111,-73.935971,2020-01-01T00:00:00,8
Edgecombe Ave & W 167 St,40.838191,-73.936085,2020-01-01T00:00:00,8
Frederick Douglass Blvd & Harlem River Dr,40.830702,-73.936371,2020-01-01T00:00:00,8
3 Ave & E 174 St,40.84224,-73.8985,2020-01-01T00:00:00,8
E 141 St & Jackson Ave,40.806896,-73.911837,2020-01-01T00:00:00,8
Grand Concourse & E 167 St,40.834263,-73.917641,2020-01-01T00:00:00,8
Beck St & Leggett Ave,40.815077,-73.899939,2020-01-01T00:00:00,8
Amsterdam Ave & W 156 St,40.832081,-73.942386,2020-01-01T00:00:00,8
Adam Clayton Powell Blvd & W 151 St,40.825289,-73.936232,2020-01-01T00:00:00,8
Faile St & Garrison Ave,40.820578,-73.888271,2020-01-01T00:00:00,8
Delancey St & Eldridge St,40.719383,-73.991479,2020-01-01T00:00:00,8
Wilkins Ave & Crotona Park E,40.835302,-73.895133,2020-01-01T00:00:00,8
Hamilton Pl & W 140 St,40.822756,-73.951346,2020-01-01T00:00:00,8
Old Slip & South St,40.70336686695866,-74.007867872715,2020-01-01T00:00:00,8
Southern Blvd & E 149 St,40.811892,-73.904192,2020-01-01T00:00:00,8
E 133 St & Cypress Pl,40.80262,-73.9174,2020-01-01T00:00:00,8
Courtlandt Ave & E 149 St,40.816402,-73.919549,2020-01-01T00:00:00,8
Concourse Village West & E 156 St,40.823162,-73.923267,2020-01-01T00:00:00,8
College Ave & E 170 St,40.837576,-73.910489,2020-01-01T00:00:00,8
Grant Ave & E 164 St,40.828847,-73.91769,2020-01-01T00:00:00,8
Brook Ave & E 141 St,40.809619,-73.917875,2020-01-01T00:00:00,8
Goble Pl & Macombs Rd,40.844075,-73.917256,2020-01-01T00:00:00,8
E 174 St & Longfellow Ave,40.836274,-73.884308,2020-01-01T00:00:00,8
Walton Ave & E 171 St,40.840683,-73.915073,2020-01-01T00:00:00,8
Gerard Ave & E 164 St,40.830262,-73.923391,2020-01-01T00:00:00,8
E 165 St & Clay Ave,40.82809,-73.91288,2020-01-01T00:00:00,8
Concourse Village East & E 158 St,40.823732,-73.919379,2020-01-01T00:00:00,8
Westchester Ave & Southern Blvd,40.824956,-73.891677,2020-01-01T00:00:00,8
Westchester Ave & E 156 St,40.817802,-73.905203,2020-01-01T00:00:00,8
W 78 St & Amsterdam Ave,40.782535857724106,-73.979085087776184,2020-01-01T00:00:00,8
E 167 St & Clay Ave,40.83094,-73.91125,2020-01-01T00:00:00,8
Union Ave & E 169 St,40.82995,-73.898802,2020-01-01T00:00:00,8
Roosevelt Island Tramway,40.757284,-73.9536,2020-01-01T00:00:00,8
E 132 St & Madison Ave,40.810224,-73.937195,2020-01-01T00:00:00,8
Southern Blvd & E 172 St,40.834124,-73.88955,2020-01-01T00:00:00,8
Convent Ave & W 151 St,40.82831,-73.942924,2020-01-01T00:00:00,8
E 39 St & Lexington Ave,40.7494985460252,-73.977292031131583,2020-01-01T00:00:00,8
W 20 St & 10 Ave,40.745686,-74.005141,2020-01-01T00:00:00,8
Lexington Ave & E 29 St [temporarily removed],40.743115553764859,-73.982153534889221,2020-01-01T00:00:00,8
Central Park West & W 85 St (old),40.78472675,-73.96961715,2020-01-01T00:00:00,8
Brook Ave & E 138 St,40.807408,-73.91924,2020-01-01T00:00:00,8
2 Ave & E 125 St,40.802554,-73.933509,2020-01-01T00:00:00,8
Central Park W & W 103 St,40.796036841599843,-73.961589038535749,2020-01-01T00:00:00,8
8 St & Astoria Blvd,40.7725996921817,-73.932662755250931,2020-01-01T00:00:00,8
W 145 St & Amsterdam Ave,40.825244,-73.947257,2020-01-01T00:00:00,8
Wadsworth Ave & W 179 St,40.848467,-73.936064,2020-01-01T00:00:00,8
Marcus Garvey Blvd & Macon St    [temporarily removed],40.682601,-73.938037,2020-01-01T00:00:00,8
Warren St & W Broadway,40.71473993,-74.00910627,2020-01-01T00:00:00,8
W 30 St & 10 Ave,40.752694,-74.002353,2020-01-01T00:00:00,8
W 135 St & Lenox Terrace Pl,40.813619,-73.939336,2020-01-01T00:00:00,8
Westchester Ave & Longwood Ave,40.819701,-73.901311,2020-01-01T00:00:00,8
Longfellow Ave & E 165 St,40.825322,-73.887729,2020-01-01T00:00:00,8
Wadsworth Ave & W 175 St,40.846052,-73.937648,2020-01-01T00:00:00,8
Edgecombe Ave & W 150 St,40.826881,-73.941427,2020-01-01T00:00:00,8
Edgecombe Ave & W 141 St,40.820681,-73.945144,2020-01-01T00:00:00,8
Intervale Ave & Westchester Ave,40.821967,-73.896752,2020-01-01T00:00:00,8
St. Nicholas Ave & W 157 St,40.832314,-73.94102,2020-01-01T00:00:00,8
E 157 St & River Ave,40.825737,-73.927311,2020-01-01T00:00:00,8
Prospect Ave & E 167 St,40.826303,-73.898751,2020-01-01T00:00:00,8
Amsterdam Ave & W 175 St,40.844044,-73.933651,2020-01-01T00:00:00,8
Clay Ave & Claremont Pkwy,40.83999,-73.90549,2020-01-01T00:00:00,8
W 140 St & Riverside Dr,40.824013,-73.954743,2020-01-01T00:00:00,8
Amsterdam Ave & W 131 St,40.816355,-73.954295,2020-01-01T00:00:00,8
Wales Ave & E 147 St,40.811314,-73.907729,2020-01-01T00:00:00,8
Fulton Ave & E 172 St,40.839229,-73.899047,2020-01-01T00:00:00,8
1 Ave & E 39 St,40.74714,-73.97113,2020-01-01T00:00:00,8
Lenox Ave & W 144 St,40.819783,-73.936521,2020-01-01T00:00:00,8
Nelson Ave & W 172 St,40.843965,-73.920999,2020-01-01T00:00:00,8
W 169 St & Fort Washington Ave,40.8428422,-73.9421253,2020-01-01T00:00:00,8
Jerome Ave & Anderson Ave,40.830179,-73.928747,2020-01-01T00:00:00,8
Grand Concourse & E 156 St,40.823429,-73.924689,2020-01-01T00:00:00,8
E 147 St & Bergen Ave,40.814673,-73.91839,2020-01-01T00:00:00,8
Greenpoint Ave & Manhattan Ave [temporarily removed],40.73026,-73.95394,2020-01-01T00:00:00,8
Park Ave & E 162 St,40.825716,-73.915585,2020-01-01T00:00:00,8
W 133 St & 12 Ave,40.820003,-73.959089,2020-01-01T00:00:00,8
Morris Ave & E 163 St,40.827230499624726,-73.917655795976316,2020-01-01T00:00:00,8
Louis Nine Blvd & Intervale Ave,40.831998,-73.892686,2020-01-01T00:00:00,8
35 St & 23 Ave,40.773015082913822,-73.911190330982208,2020-01-01T00:00:00,8
6 Ave & W 45 St,40.756951,-73.982631,2020-01-01T00:00:00,8
Pearl St & Peck Slip,40.708485,-74.002751,2020-01-01T00:00:00,8
Fulton Ave & E 168 St,40.830471,-73.904556,2020-01-01T00:00:00,8
Wards Meadow Comfort Station,40.78294,-73.93077,2020-01-01T00:00:00,8
MTL-AOS-5.1,40.7903,-73.9597,2020-01-01T00:00:00,8
Broadway & W 160 St,40.835775,-73.9434,2020-01-01T00:00:00,8
Sands St Gate,40.699569,-73.979827,2020-01-01T00:00:00,8
W 147 St & Adam Clayton Powell Blvd,40.82281,-73.937413,2020-01-01T00:00:00,8
Webster Ave & E 166 St,40.828975,-73.911259,2020-01-01T00:00:00,8
Jerome Ave & Ogden Ave,40.829797,-73.931015,2020-01-01T00:00:00,8
Fort Washington Ave & W 173 St,40.84522,-73.940493,2020-01-01T00:00:00,8
Willow Ave & E 133 St,40.800933,-73.913863,2020-01-01T00:00:00,8
Boston Rd & Prospect Ave,40.833246,-73.896599,2020-01-01T00:00:00,8
Lenox Ave & W 133 St,40.81296,-73.941878,2020-01-01T00:00:00,8
Southern Blvd & Tiffany St,40.818185,-73.894143,2020-01-01T00:00:00,8
Lincoln Ave & E 138 St,40.810893,-73.927311,2020-01-01T00:00:00,8
Prospect Ave & E 151 St,40.814232,-73.903927,2020-01-01T00:00:00,8
Amsterdam Ave & W 180 St,40.847396,-73.931205,2020-01-01T00:00:00,8
Broadway & W 153 St,40.831327,-73.946665,2020-01-01T00:00:00,8
Lafayette Ave & Hunts Point Ave,40.816567,-73.888161,2020-01-01T00:00:00,8
Willoughby St & Ashland Pl,40.69178,-73.97877,2020-01-01T00:00:00,8
W 54 St & 11 Ave,40.768333,-73.992573,2020-01-01T00:00:00,8
Lincoln Ave & E 134 St,40.808484,-73.928803,2020-01-01T00:00:00,8
Grand Concourse & East Mount Eden Ave,40.84301,-73.91172,2020-01-01T00:00:00,8
Spring St & Hudson St,40.725839967923747,-74.0076532959938,2020-01-01T00:00:00,8
E 160 St & Tinton Ave,40.820302,-73.903944,2020-01-01T00:00:00,8
Intervale Ave & Kelly St,40.827301,-73.896372,2020-01-01T00:00:00,8
Amsterdam Ave & W 172 St,40.842173,-73.935111,2020-01-01T00:00:00,8
W 48 St & Rockefeller Plaza,40.757936462436739,-73.979602754116058,2020-01-01T00:00:00,8
W 159 St & Edgecombe Ave,40.833303,-73.939326,2020-01-01T00:00:00,8
St Nicholas Ave & W 137 St,40.818477,-73.947568,2020-01-01T00:00:00,8
W Broadway & Spring St [temporarily removed],40.724946723594158,-74.00165855884552,2020-01-01T00:00:00,8
E 149 St & Jackson Ave,40.813135,-73.909235,2020-01-01T00:00:00,8
Willoughby Ave & Myrtle Ave [temporarily removed],40.69757,-73.93098,2020-01-01T00:00:00,8
West St & Liberty St,40.711444,-74.014847,2020-01-01T00:00:00,8
Sherman Ave & E 166 St,40.831305492672961,-73.917447924613953,2020-01-01T00:00:00,8
St Ann's Ave & Westchester Ave,40.815887,-73.911918,2020-01-01T00:00:00,8
E 158 St & Melrose Ave,40.822215,-73.914688,2020-01-01T00:00:00,8
E 167 St & Franklin Ave,40.82895,-73.90521,2020-01-01T00:00:00,8
E 170 St & Clay Ave,40.837213,-73.908345,2020-01-01T00:00:00,8
Edgecombe Ave & W 145 St,40.823498,-73.94386,2020-01-01T00:00:00,8
Morris Ave & McClellan St,40.831584,-73.9149,2020-01-01T00:00:00,8
Bergen Ave & E 152 St,40.817166,-73.914737,2020-01-01T00:00:00,8
E 170 St & Webster Ave_old,40.836103,-73.907199,2020-01-01T00:00:00,8
Propsect Ave & E 151 St,40.814232,-73.903927,2020-01-01T00:00:00,8
Clay Ave & E 173 St,40.843264,-73.904867,2020-01-01T00:00:00,8
Crotona Park North & Prospect Ave,40.841092,-73.892317,2020-01-01T00:00:00,8
Mount Eden Pkwy & Eastburn Ave,40.842675,-73.908544,2020-01-01T00:00:00,8
W 170 St & University Ave,40.84207,-73.926075,2020-01-01T00:00:00,8
Melrose Ave & E 150 St,40.816827,-73.917338,2020-01-01T00:00:00,8
Southpoint Park,40.75370225419114,-73.958652019500718,2020-01-01T00:00:00,8
St Mary's St & Jackson Ave,40.808891,-73.91081,2020-01-01T00:00:00,8
W 163 St & Riverside Dr,40.839278,-73.945446,2020-01-01T00:00:00,8
Grand Concourse & E 166 St,40.83196,-73.91956,2020-01-01T00:00:00,8
Freeman St & Southern Blvd,40.830051,-73.892103,2020-01-01T00:00:00,8
W 163 St & Edgecombe Ave,40.835798,-73.937496,2020-01-01T00:00:00,8
Willis Ave & E 137 St,40.808384,-73.923604,2020-01-01T00:00:00,8
W 51 St & Rockefeller Plaza,40.759699959062537,-73.978081941604614,2020-01-01T00:00:00,8
Central Park W & W 91 St,40.788664991278843,-73.966800570487976,2020-01-01T00:00:00,8
Barry St & Tiffany St,40.816126,-73.891559,2020-01-01T00:00:00,8
E 50 St & Park Ave,40.757334,-73.974235,2020-01-01T00:00:00,8
5 Ave & W 131 St,40.81014,-73.93973,2020-01-01T00:00:00,8
Southern Blvd & E 175 St,40.839335,-73.886445,2020-01-01T00:00:00,8
Morris Ave & E 142 St,40.814469,-73.924963,2020-01-01T00:00:00,8
E 54 St & 1 Ave,40.756265,-73.964179,2020-01-01T00:00:00,8
Tinton Ave & E 165 St,40.824796,-73.90242,2020-01-01T00:00:00,8
Ogden Ave & W 165 St,40.834457,-73.928381,2020-01-01T00:00:00,8
Grand Concourse & E 164 St,40.829608,-73.921461,2020-01-01T00:00:00,8
18 St & 27 Ave,40.772768286288304,-73.927436470985413,2020-01-01T00:00:00,8
Ogden Ave & W 164 St,40.832812,-73.929372,2020-01-01T00:00:00,8
E 169 St & Webster Ave,40.834015,-73.908863,2020-01-01T00:00:00,8
3 Ave & E 170 St,40.834857,-73.903743,2020-01-01T00:00:00,8
Freeman St & Reverend James A Polite Ave,40.830529,-73.894717,2020-01-01T00:00:00,8
E 165 St & Jerome Ave,40.83263,-73.925101,2020-01-01T00:00:00,8
E 171 St & Webster Ave,40.838379,-73.905838,2020-01-01T00:00:00,8
Macombs Pl & W 152 St,40.826406,-73.937948,2020-01-01T00:00:00,8
Amsterdam Ave & W 167 St,40.839443,-73.937044,2020-01-01T00:00:00,8
Hudson St & W 13 St,40.740057085672852,-74.0052741765976,2020-01-01T00:00:00,8
Gerard Ave & E 165 St,40.83173,-73.922394,2020-01-01T00:00:00,8
Boston Rd & E 167 St,40.828199,-73.903719,2020-01-01T00:00:00,8
W 160 St & St. Nicholas Ave,40.834468,-73.939865,2020-01-01T00:00:00,8
Wall St & South St,40.70437,-74.00637,2020-01-01T00:00:00,8
E 141 St & St Ann's Ave,40.808633,-73.916124,2020-01-01T00:00:00,8
E 138 St & Grand Concourse,40.813224,-73.930605,2020-01-01T00:00:00,8
Boone Ave & E 172 St,40.832649,-73.885272,2020-01-01T00:00:00,8
39 St & 2 Ave,40.655399774478312,-74.010627865791321,2020-01-01T00:00:00,8
W 181 St & Riverside Dr,40.85168,-73.94186,2020-01-01T00:00:00,8
34th Ave & Vernon Blvd,40.765353803858659,-73.93986314535141,2020-01-01T00:00:00,8
E 138 St & Willow Ave,40.804168,-73.911545,2020-01-01T00:00:00,8
Cauldwell Ave & E 158 St,40.81989,-73.908351,2020-01-01T00:00:00,8
Walton Ave & E 168 St,40.83649,-73.918316,2020-01-01T00:00:00,8
W 171 St & St. Nicholas Ave,40.842941,-73.938631,2020-01-01T00:00:00,8
E 163 St & Union Ave,40.822545,-73.901824,2020-01-01T00:00:00,8
E 150 St & Gerard Ave,40.820089,-73.928947,2020-01-01T00:00:00,8
Longwood Ave & Southern Blvd,40.816343,-73.896447,2020-01-01T00:00:00,8
Hunts Point Ave & Bryant Ave,40.813991,-73.8855,2020-01-01T00:00:00,8
Fort Washington Ave & W 183 St,40.852252,-73.937854,2020-01-01T00:00:00,8
E 155 St & Courtlandt Ave,40.82057,-73.917579,2020-01-01T00:00:00,8
E 128 St & 3 Ave,40.805631,-73.934077,2020-01-01T00:00:00,8
W 165 St & Fort Washington Ave,40.84004,-73.942939,2020-01-01T00:00:00,8
Audobon Ave & W 179 St,40.847305,-73.933291,2020-01-01T00:00:00,8
Grant Ave & E 169 St,40.83579,-73.913741,2020-01-01T00:00:00,8
Bruckner Blvd & Bryant Ave,40.821952,-73.888546,2020-01-01T00:00:00,8
4 Ave & E 12 St,40.732647,-73.99011,2020-01-01T00:00:00,8
Broadway & W 133 St,40.8190344,-73.956156,2020-01-01T00:00:00,8
W 180 St & Ft Washington Ave,40.849972,-73.938423,2020-01-01T00:00:00,8
5 Ave & E 135 St,40.812,-73.938,2020-01-01T00:00:00,8
Amsterdam Ave & W 162 St,40.83618,-73.939789,2020-01-01T00:00:00,8
Harlem River Dr & W 155 St,40.830476,-73.939929,2020-01-01T00:00:00,8
E 167 St & Bryant Ave,40.826706,-73.888719,2020-01-01T00:00:00,8
E 138 St & 5 Av,40.81449,-73.936153,2020-01-01T00:00:00,8
31 Ave & Steinway St (temp),40.761293897289086,-73.916916847229,2020-01-01T00:00:00,8
Amsterdam Ave & W 152 St,40.829523,-73.944279,2020-01-01T00:00:00,8
Charlotte St & Boston Rd,40.8358771,-73.8931428,2020-01-01T00:00:00,8
St Nicholas Ave & W 150 St,40.827212,-73.942722,2020-01-01T00:00:00,8
Waterloo Pl & Crotona Park East,40.839194,-73.888587,2020-01-01T00:00:00,8
Walton Ave & E 153 St,40.822351,-73.926907,2020-01-01T00:00:00,8
24 St & 38 Ave,40.756351,-73.936515,2020-01-01T00:00:00,8
Washington Ave & E 167 St,40.829896,-73.907618,2020-01-01T00:00:00,8
Crotona Park East & E 173 St,40.837037,-73.890413,2020-01-01T00:00:00,8
Morris Ave & E 171 St,40.83899,-73.9109,2020-01-01T00:00:00,8
E 149 St & Morris Ave,40.81734,-73.922962,2020-01-01T00:00:00,8
Willis Ave & E 141 St,40.81093,-73.921606,2020-01-01T00:00:00,8
Grand Concourse & E 161 St,40.827115,-73.92272,2020-01-01T00:00:00,8
Southern Blvd & E 142 St,40.806,-73.908097743988037,2020-01-01T00:00:00,8
Gerard Ave & E 146 St,40.817755,-73.92965,2020-01-01T00:00:00,8
Broadway & W 155 St,40.83299,-73.94592,2020-01-01T00:00:00,8
W 59 St & West End Ave,40.771771,-73.990625,2020-01-01T00:00:00,8
Madison Av & E 51 St,40.75863,-73.97513,2020-01-01T00:00:00,8
Grand Concourse & E 144 St,40.816576,-73.927987,2020-01-01T00:00:00,8
2 Ave & 36 St,40.656,-74.01,2020-01-01T00:00:00,8
Prospect Ave & Longwood Ave,40.81899,-73.90202,2020-01-01T00:00:00,8
E 144 St & Brook Ave,40.811675,-73.917037,2020-01-01T00:00:00,8
West End Ave & W 60 St,40.77237,-73.99005,2020-01-01T00:00:00,8
St. Nicholas Terrace & Convent Ave,40.821294,-73.947868,2020-01-01T00:00:00,8
Old Broadway & W 133 St,40.818212,-73.955277,2020-01-01T00:00:00,8
W 44 St & 11 Ave,40.762009,-73.996975,2020-01-01T00:00:00,8
34 Ave & 31 St,40.759604471387945,-73.927144110202789,2020-01-01T00:00:00,8
W 146 St & Broadway,40.826969,-73.949738,2020-01-01T00:00:00,8
5 Ave & E 72 St,40.77282817,-73.96685276,2020-01-01T00:00:00,8
8 Ave & W 38 St,40.75461,-73.99177,2020-01-01T00:00:00,8
W 155 St & Frederick Douglass Blvd,40.82923,-73.936996,2020-01-01T00:00:00,8
21 St & 23 Ave,40.778557,-73.919046,2020-01-01T00:00:00,8
W 35 St & 9 Ave,40.754145192635193,-73.9960889518261,2020-01-01T00:00:00,8
Lexington Ave & E 128 St,40.806414,-73.936085,2020-01-01T00:00:00,8
E 169 St & Fox St,40.827184,-73.893721,2020-01-01T00:00:00,8
Hamilton Pl & W 138 St,40.821728,-73.952761,2020-01-01T00:00:00,8
24 St & 41 Ave (original),40.7527085,-73.9397405,2020-01-01T00:00:00,8
Amsterdam Ave & W 136 St,40.819746,-73.951819,2020-01-01T00:00:00,8
Lexington Ave & E 26 St [temporarily removed],40.741459,-73.983293,2020-01-01T00:00:00,8
Jerome Ave & E 164 St,40.831444,-73.926226,2020-01-01T00:00:00,8
Sunken Meadow Comfort Station,40.79558,-73.91906,2020-01-01T00:00:00,8
1 Ave & E 16 St [temporarily removed],40.73221853,-73.98165557,2020-01-01T00:00:00,8
Bradhurst Ave & W 148 St,40.825125,-73.941616,2020-01-01T00:00:00,8
Adam Clayton Powell Blvd & W 130 St,40.812346,-73.946168,2020-01-01T00:00:00,8
Fulton Ave & St. Paul's Pl,40.83545,-73.90153,2020-01-01T00:00:00,8
Morris Ave & E 153 St,40.820036,-73.921411,2020-01-01T00:00:00,8
Amsterdam Ave & W 183 St,40.84925,-73.93022,2020-01-01T00:00:00,8
E 165 St & Fox St,40.82394,-73.894025,2020-01-01T00:00:00,8
River Ave & McClellan St,40.83406,-73.92243,2020-01-01T00:00:00,8
Bronx Shore Comfort Station,40.80046,-73.92404,2020-01-01T00:00:00,8
W 167 St & St. Nicholas Ave,40.840124,-73.93949,2020-01-01T00:00:00,8
Southern Blvd & Avenue St. John,40.812769,-73.901583,2020-01-01T00:00:00,8
W 144 St & Adam Clayton Powell Blvd,40.820877,-73.939249,2020-01-01T00:00:00,8
Westchester Ave & Jackson Ave,40.816124,-73.908116,2020-01-01T00:00:00,8
E 170 St & Webster Ave,40.836103,-73.907301463227654,2020-01-01T00:00:00,8
LaGuardia Pl & W 3 St [temporarily removed],40.72917025,-73.99810231,2020-01-01T00:00:00,8
Sheridan Ave & E 172 St,40.840494,-73.911479,2020-01-01T00:00:00,8
Icahn Stadium,40.79346,-73.92389,2020-01-01T00:00:00,8
3 Ave & E 169 St,40.832678,-73.905158,2020-01-01T00:00:00,8
Garrison Ave & Manida St,40.818743,-73.890247,2020-01-01T00:00:00,8
River Ave & E 151 St,40.822217,-73.928939,2020-01-01T00:00:00,8
Washington Ave & E 163 St,40.824,-73.91089,2020-01-01T00:00:00,8
University Ave & W 168 St,40.838706,-73.927034,2020-01-01T00:00:00,8
Anderson Ave & W 164 St,40.832057,-73.927421,2020-01-01T00:00:00,8
St Nicholas Ave & E 134 St,40.816234,-73.948222,2020-01-01T00:00:00,8
E 135 St & St Ann's Ave,40.805089,-73.918889,2020-01-01T00:00:00,8
Adam Clayton Powell Blvd & W 132 St,40.813539,-73.94521,2020-01-01T00:00:00,8
3 Ave & E 172 St,40.839586,-73.900277,2020-01-01T00:00:00,8
West End Ave & W 78 St,40.783786,-73.981687,2020-01-01T00:00:00,8
Franklin Ave & E 169 St,40.83171,-73.90208,2020-01-01T00:00:00,8
Sheridan Ave & E 168 St,40.835334,-73.9154,2020-01-01T00:00:00,8
Melrose Ave & E 154 St,40.819609,-73.916071,2020-01-01T00:00:00,8
St. Ann's Ave & E 144 St,40.811112,-73.914932,2020-01-01T00:00:00,8
1 Ave & E 18 St [temporarily removed],40.733812191966322,-73.980544209480286,2020-01-01T00:00:00,8
Cauldwell Ave & E 161 St,40.82188,-73.907521,2020-01-01T00:00:00,8
Liberty St & Nassau St,40.708588942405811,-74.009354822358091,2020-01-01T00:00:00,8
Dawson St & Intervale Ave,40.819999,-73.897263,2020-01-01T00:00:00,8
Prospect Ave & Jennings St,40.831762,-73.896853,2020-01-01T00:00:00,8
E 153 St & E 157 St,40.826677,-73.929327,2020-01-01T00:00:00,8
Walnut Ave & E 136 St,40.801657,-73.909513,2020-01-01T00:00:00,8
E 138 St & Cypress Ave,40.805559,-73.914718,2020-01-01T00:00:00,8
W 148 St & Amsterdam Ave,40.827075,-73.945909,2020-01-01T00:00:00,8
Washington Ave & E 174 St,40.843079,-73.900216,2020-01-01T00:00:00,8
Seneca Ave & Irvine St,40.818725699901158,-73.888624906539917,2020-01-01T00:00:00,8
E 161 St & Park Ave,40.824811,-73.916407,2020-01-01T00:00:00,8
Central Park W & W 97 St,40.792495194951108,-73.964170664630714,2020-01-01T00:00:00,8
3 Ave & E 163 St,40.823872,-73.908699,2020-01-01T00:00:00,8
E 138 St & Canal St W,40.812304,-73.929153,2020-01-01T00:00:00,8
Southern Blvd & E 174 St,40.836733,-73.887931,2020-01-01T00:00:00,8
W 31 St & 7 Ave [temporarily removed],40.749156,-73.9916,2020-01-01T00:00:00,8
Gerard Ave & McClellan St,40.833909,-73.92112,2020-01-01T00:00:00,8
Grand Concourse & E 171 St,40.839549,-73.913004,2020-01-01T00:00:00,8
Hoe Ave & Jennings St,40.832171,-73.889686,2020-01-01T00:00:00,8
Willis Ave & E 143 St,40.812299,-73.92037,2020-01-01T00:00:00,8
Riverside Dr & W 153 St,40.832164,-73.949702,2020-01-01T00:00:00,8
Brook Ave & E 157 St,40.820713,-73.911759,2020-01-01T00:00:00,8
Riverside Dr & W 145 St,40.827305,-73.951989,2020-01-01T00:00:00,8
Shakespeare Ave & W 169 St,40.839312,-73.922423,2020-01-01T00:00:00,8
Adam Clayton Powell Blvd & W 138 St,40.816959710324639,-73.9422959089279,2020-01-01T00:00:00,8
Riverside Dr & W 138 St,40.823168,-73.955857,2020-01-01T00:00:00,8
E 156 & Brook Ave,40.819823,-73.912411,2020-01-01T00:00:00,8
E 174 St & Walton Ave,40.844811,-73.912042,2020-01-01T00:00:00,8
Ogden Ave & Merriam Ave,40.839142,-73.925961,2020-01-01T00:00:00,8
E 149 St & Eagle Ave,40.814046,-73.91186,2020-01-01T00:00:00,8
Adam Clayton Powell Blvd & W 141 St,40.819241,-73.941057,2020-01-01T00:00:00,8
Inwood Ave & W 170 St,40.840536,-73.919228,2020-01-01T00:00:00,8
Plaza Dr & W 170 St,40.840484,-73.917946,2020-01-01T00:00:00,8
E 170 St & Sheridan Ave,40.838315,-73.912604,2021-01-01T00:00:00,9
46 St & 25 Ave,40.765753,-73.90676,2021-01-01T00:00:00,9
34 Ave & 48 St,40.75388,-73.914952,2021-01-01T00:00:00,9
57 St & 1 Ave - Brooklyn Army Terminal Vaccination Site,40.646377,-74.023087,2021-01-01T00:00:00,9
34 Ave & 45 St,40.754795,-73.917014,2021-01-01T00:00:00,9
Shore Blvd & Astoria Park,40.77977,-73.923162,2021-01-01T00:00:00,9
E 27 St & Park Ave S,40.742751796489948,-73.9847157150507,2021-01-01T00:00:00,9
Steinway St & Broadway,40.759057954185863,-73.918975442647934,2021-01-01T00:00:00,9
Ditmars Blvd & 48 St,40.769219,-73.901001,2021-01-01T00:00:00,9
50 St & 30 Ave,40.760083,-73.907107,2021-01-01T00:00:00,9
42 Pl & Northern Blvd,40.753091,-73.920603,2021-01-01T00:00:00,9
25 Ave & 41 St,40.767666,-73.910963,2021-01-01T00:00:00,9
34 St & 38 Ave,40.752443,-73.929737,2021-01-01T00:00:00,9
Nelson Ave & 167 St,40.836705668628042,-73.926088660955429,2021-01-01T00:00:00,9
36 St & Ditmars Blvd,40.774306,-73.908335,2021-01-01T00:00:00,9
62 St & Northern Blvd,40.754176,-73.900318,2021-01-01T00:00:00,9
21 St & 21 Ave,40.782465,-73.914527,2021-01-01T00:00:00,9
Broadway & 51 St,40.754164,-73.908906,2021-01-01T00:00:00,9
31 St & Ditmars Blvd,40.776168,-73.910485,2021-01-01T00:00:00,9
Steinway St & 21 Ave,40.774798,-73.903787,2021-01-01T00:00:00,9
50 St & Northern Blvd,40.753441,-73.912402,2021-01-01T00:00:00,9
31 St & 21 Ave,40.77813,-73.90842,2021-01-01T00:00:00,9
31 Ave & 61 St,40.757525,-73.901614,2021-01-01T00:00:00,9
38 St & Northern Blvd,40.752372,-73.925384,2021-01-01T00:00:00,9
3 Ave & E 174 St - Bathgate Vaccination Site,40.84224,-73.8985,2021-01-01T00:00:00,9
30 Ave & 41 St,40.763422,-73.914142,2021-01-01T00:00:00,9
51 St & Hobart St,40.757764,-73.907654,2021-01-01T00:00:00,9
31 Rd & 21 St,40.766824,-73.930486,2021-01-01T00:00:00,9
Washington St & Barrow St,40.731911323231742,-74.008769094944,2021-01-01T00:00:00,9
30 Ave & 47 St,40.761294,-73.909562,2021-01-01T00:00:00,9
49 St & 31 Ave,40.758057,-73.909831,2021-01-01T00:00:00,9
31 Ave & 57 St,40.757357,-73.904726,2021-01-01T00:00:00,9
Steinway St & Ditmars Blvd,40.772717,-73.906127,2021-01-01T00:00:00,9
43 St & 37 Ave,40.750181,-73.919998,2021-01-01T00:00:00,9
Broadway & 49 St,40.755389,-73.911517,2021-01-01T00:00:00,9
46 St & 28 Ave,40.763328,-73.908782,2021-01-01T00:00:00,9
Ditmars Ave & 43 St,40.771203,-73.903865,2021-01-01T00:00:00,9
48 St & 37 Ave,40.751555,-73.915026,2021-01-01T00:00:00,9
W 36 St & 7 Ave,40.752149,-73.989539,2021-01-01T00:00:00,9
21 Ave & Shore Blvd,40.783956,-73.916894,2021-01-01T00:00:00,9
43 St & 23 Ave,40.769673,-73.906018,2021-01-01T00:00:00,9
21 Ave & Crescent St,40.780478,-73.912212,2021-01-01T00:00:00,9
