,Unnamed: 0,dock_id,dock_name,month,num_day,hour,latitude,longitude,avail_bikes,tot_docks,avail_bikes_proportion,tmp,rain,weekday_cluster,weekend_cluster
0,2814816,83,Atlantic Ave & Fort Greene Pl,6,3,21,40.68382604,-73.97632328,24,62,0.3870967741935483,22.2,0,2,3
1,2667311,119,Park Ave & St Edwards St,10,5,5,40.69608941,-73.97803415,11,19,0.5789473684210527,22.8,0,2,0
2,1610933,120,Lexington Ave & Classon Ave,6,1,17,40.68676793,-73.95928168,2,19,0.1052631578947368,31.7,0,1,0
3,460240,143,Clinton St & Joralemon St,5,2,22,40.69239501054335,-73.99337905698506,3,24,0.125,21.1,0,2,3
4,2317108,144,Nassau St & Navy St,5,6,13,40.69839895,-73.98068914,13,19,0.6842105263157894,16.7,0,2,0
5,155622,157,Henry St & Atlantic Ave,10,4,2,40.69089272,-73.99612349,8,23,0.3478260869565217,18.9,1,4,0
6,984133,164,E 47 St & 2 Ave,6,4,6,40.75323098,-73.97032517,5,47,0.1063829787234042,22.8,0,5,1
7,2593919,167,E 39 St & 3 Ave,11,4,9,40.7489006006572,-73.9760488262888,37,45,0.8222222222222221,11.7,0,0,1
8,1983891,168,W 18 St & 6 Ave,10,5,5,40.73971301,-73.99456405,0,47,0.0,6.7,0,5,3
9,2423217,174,E 25 St & 1 Ave,6,6,3,40.738176486502816,-73.97738661556457,29,30,0.9666666666666666,21.1,0,1,2
10,1467827,195,Liberty St & Broadway,5,4,23,40.70905623,-74.01043382,26,45,0.5777777777777777,14.4,1,5,1
11,1498433,216,Columbia Heights & Cranberry St,5,2,13,40.70037867,-73.99548059,2,23,0.0869565217391304,14.4,0,0,2
12,2865862,224,Spruce St & Nassau St,4,1,3,40.71146364,-74.00552427,28,31,0.9032258064516128,13.3,0,0,2
13,1973452,238,Bank St & Washington St,7,4,8,40.736196703546334,-74.00859207621562,9,31,0.2903225806451613,25.0,0,4,3
14,1235168,241,DeKalb Ave & S Portland Ave,4,3,0,40.68981035,-73.97493121,7,23,0.3043478260869565,10.0,0,1,0
15,2278493,243,Fulton St & Rockwell Pl,12,6,17,40.688208131116966,-73.97923011987052,26,31,0.8387096774193548,9.4,0,2,3
16,730707,245,Myrtle Ave & St Edwards St,10,3,5,40.69327015524063,-73.97703873924483,6,23,0.2608695652173913,7.8,0,1,2
17,659543,249,Harrison St & Hudson St,6,4,3,40.718709872275056,-74.00900090783449,3,27,0.1111111111111111,25.0,0,5,2
18,1161532,251,Mott St & Prince St,8,5,17,40.723179573579934,-73.99480012108789,8,27,0.2962962962962962,24.4,0,2,0
19,2385949,253,W 13 St & 5 Ave,7,6,20,40.73543934,-73.99453948,12,55,0.2181818181818181,26.1,0,0,2
20,2869979,258,DeKalb Ave & Vanderbilt Ave,12,7,6,40.68940747,-73.96885458,19,24,0.7916666666666666,10.0,1,1,2
21,194786,260,Broad St & Bridge St,8,4,2,40.70365182347811,-74.0116779832063,0,35,0.0,22.2,0,5,1
22,2554299,261,Johnson St & Gold St,10,5,9,40.69474881,-73.98362464,4,27,0.1481481481481481,5.6,0,4,0
23,2437152,264,Maiden Ln & Pearl St,5,6,2,40.70706456,-74.00731853,1,27,0.037037037037037,16.1,1,5,2
24,1206102,267,Broadway & W 36 St,4,5,16,40.75097711464934,-73.9876542861167,15,57,0.263157894736842,17.2,0,0,1
25,541632,275,Washington Ave & Greene Ave,3,7,17,40.68650065,-73.96563307,6,19,0.3157894736842105,2.2,0,1,0
26,375622,289,Monroe St & Classon Ave,5,2,12,40.6845683,-73.95881081,4,19,0.2105263157894736,14.4,0,2,0
27,1890043,291,Madison St & Montgomery St,3,5,0,40.713126,-73.984844,17,20,0.85,3.3,0,4,0
28,1884186,295,Pike St & E Broadway,12,3,17,40.71406667,-73.99293911,13,24,0.5416666666666666,3.9,0,1,0
29,2684686,296,Division St & Bowery,6,6,23,40.71413089,-73.9970468,2,35,0.0571428571428571,30.0,0,2,0
30,2201208,297,E 15 St & 3 Ave,10,5,17,40.73423199751571,-73.98692299011634,1,27,0.037037037037037,9.4,0,1,2
31,2755410,307,Canal St & Rutgers St,5,1,20,40.71427487,-73.98990025,9,31,0.2903225806451613,16.7,0,4,0
32,80701,310,State St & Smith St,7,4,1,40.68926941787984,-73.98912866898746,21,36,0.5833333333333333,26.1,0,3,3
33,1957020,312,Allen St & Stanton St,11,7,1,40.722055,-73.989111,30,31,0.967741935483871,17.8,1,4,0
34,456058,313,Washington Ave & Park Ave,10,6,7,40.69610226,-73.96751037,12,23,0.5217391304347825,17.8,1,3,0
35,2125088,315,South St & Gouverneur Ln,8,3,23,40.70355377,-74.00670227,4,29,0.1379310344827586,24.0,1,5,2
36,2711314,316,Fulton St & William St,2,3,6,40.70955958257419,-74.00653609271146,32,43,0.7441860465116279,8.9,0,5,1
37,2221580,319,Fulton St & Broadway,11,3,5,40.71139014975276,-74.00943700614523,19,33,0.5757575757575758,10.0,0,5,2
38,1670114,321,Cadman Plaza E & Red Cross Pl,7,2,8,40.69991755,-73.98971773,7,27,0.2592592592592592,21.7,0,2,2
39,2864307,325,E 19 St & 3 Ave,1,6,19,40.73624527,-73.98473765,15,36,0.4166666666666666,3.9,0,0,1
40,1033726,331,Pike St & Monroe St,10,6,7,40.711731079978605,-73.99193043054707,23,27,0.8518518518518517,4.4,0,1,0
41,2861189,334,W 20 St & 7 Ave,8,2,17,40.74238787343948,-73.9972623541448,9,31,0.2903225806451613,32.2,0,2,2
42,2545870,336,Sullivan St & Washington Sq,4,6,6,40.73047747,-73.99906065,27,36,0.75,12.2,0,2,0
43,2004309,337,Old Slip & Front St,12,4,5,40.7037992,-74.00838676,18,37,0.4864864864864865,-0.6,0,5,1
44,1248222,343,Clinton Ave & Flushing Ave,9,7,12,40.697940002027366,-73.96986851823347,13,23,0.5652173913043477,20.6,0,2,0
45,2822245,345,W 13 St & 6 Ave,6,3,21,40.73649403,-73.99704374,1,35,0.0285714285714285,30.0,0,1,2
46,309169,353,S Portland Ave & Hanson Pl,8,3,20,40.68539567866734,-73.9743145754883,7,27,0.2592592592592592,21.7,1,2,3
47,2760796,354,Emerson Pl & Myrtle Ave,10,3,6,40.69363143664459,-73.9622355685286,13,23,0.5652173913043477,20.0,0,4,0
48,2229780,355,Bayard St & Baxter St,8,7,22,40.71602118,-73.99974372,1,43,0.0232558139534883,22.2,1,2,3
49,1568299,357,E 11 St & Broadway,12,5,14,40.73261787,-73.99158043,21,27,0.7777777777777777,6.1,0,0,2
50,109325,363,West Thames St,7,4,21,40.70834698,-74.01713445,25,49,0.510204081632653,27.8,0,1,2
51,2209489,364,Lafayette Ave & Classon Ave,7,2,16,40.68900442989051,-73.96023850939078,2,27,0.074074074074074,30.0,0,1,2
52,1386292,365,Fulton St & Grand Ave,2,5,23,40.68223166,-73.9614583,15,31,0.4838709677419355,0.6,0,1,0
53,67910,368,Carmine St & 6 Ave,5,3,10,40.73038599,-74.00214988,23,39,0.5897435897435896,17.8,0,2,0
54,2448994,369,Washington Pl & 6 Ave,6,4,20,40.73224119,-74.00026394,20,35,0.5714285714285714,19.4,0,1,0
55,964280,372,Franklin Ave & Myrtle Ave,3,1,0,40.69453931163692,-73.95804187898645,5,27,0.1851851851851851,3.9,0,2,0
56,690429,373,Willoughby Ave & Walworth St,10,6,8,40.69331716,-73.95381995,5,19,0.263157894736842,16.7,1,2,0
57,2183772,386,Centre St & Worth St,11,4,5,40.71494807,-74.00234482,12,43,0.2790697674418604,13.3,0,5,2
58,997994,389,Broadway & Berry St,11,5,2,40.71044554,-73.96525063,16,27,0.5925925925925924,0.6,0,1,0
59,469746,390,Duffield St & Willoughby St,1,2,14,40.69221588786423,-73.9842843872936,29,31,0.9354838709677418,-4.4,0,5,2
60,62665,392,Jay St & Tech Pl,3,2,5,40.695065,-73.987167,28,35,0.8,1.1,0,2,0
61,48666,396,Lefferts Pl & Franklin Ave,5,4,23,40.68034241747458,-73.95576894290983,7,25,0.28,14.4,1,4,0
62,1681592,397,Fulton St & Clermont Ave,11,2,15,40.68415748,-73.96922273,11,27,0.4074074074074073,10.0,1,1,0
63,1459647,399,Lafayette Ave & St James Pl,9,7,11,40.68851534,-73.9647628,19,27,0.7037037037037037,20.0,0,1,2
64,743041,400,Pitt St & Stanton St,8,7,15,40.71926081,-73.98178024,11,15,0.7333333333333332,22.8,0,4,0
65,116185,406,Hicks St & Montague St,9,7,12,40.69512845,-73.99595065,8,34,0.2352941176470588,20.6,0,1,0
66,203291,408,Market St & Cherry St,10,1,12,40.71076228,-73.99400398,13,23,0.5652173913043477,7.8,0,4,0
67,2112854,414,Pearl St & Anchorage Pl,6,1,18,40.70281858,-73.98765762,23,24,0.9583333333333331,32.2,0,5,0
68,264614,416,Cumberland St & Lafayette Ave,10,6,7,40.68753406,-73.97265183,3,31,0.0967741935483871,6.1,0,1,2
69,1637326,418,Front St & Gold St,9,7,11,40.70224,-73.982578,2,23,0.0869565217391304,20.0,0,2,0
70,1601296,421,Clermont Ave & Park Ave,6,2,4,40.69573398,-73.97129668,11,19,0.5789473684210527,23.9,0,1,0
71,1517732,436,Hancock St & Bedford Ave,5,2,12,40.68216564,-73.95399026,9,27,0.3333333333333333,14.4,0,1,2
72,277398,437,Macon St & Nostrand Ave,9,6,20,40.68098338544978,-73.95004797594497,9,24,0.375,21.7,0,2,3
73,2263700,439,E 4 St & 2 Ave,1,3,11,40.7262807,-73.98978041,3,39,0.0769230769230769,-1.7,0,4,3
74,2076109,448,W 37 St & 10 Ave,5,6,3,40.756603608838965,-73.99790090133699,31,31,1.0,19.4,0,1,2
75,1779770,454,E 51 St & 1 Ave,5,6,8,40.75455731,-73.96592976,3,35,0.0857142857142857,18.9,0,0,1
76,1072696,456,E 53 St & Madison Ave,12,3,19,40.7597108,-73.97402311,0,35,0.0,4.4,0,5,1
77,2087705,457,Broadway & W 58 St,7,5,7,40.76695317,-73.98169333,20,39,0.5128205128205127,25.0,0,0,2
78,2433716,462,W 22 St & 10 Ave,7,7,22,40.74691959,-74.00451887,11,47,0.2340425531914893,30.6,0,4,0
79,1815074,469,Broadway & W 53 St,4,7,10,40.76344058,-73.98268129,13,57,0.2280701754385964,4.4,0,0,1
80,2061813,483,E 12 St & 3 Ave,5,2,15,40.73223272,-73.98889957,0,35,0.0,23.3,0,1,0
81,311831,491,E 24 St & Park Ave S,5,4,6,40.7409637345293,-73.98602212987434,7,53,0.1320754716981132,20.6,0,5,1
82,2132485,516,E 47 St & 1 Ave,3,7,19,40.752068618918216,-73.96784384246185,2,31,0.064516129032258,10.0,0,5,1
83,2013111,524,W 43 St & 6 Ave,10,4,5,40.75527307,-73.98316936,1,57,0.0175438596491228,8.3,0,5,1
84,1237748,528,2 Ave & E 31 St,1,3,8,40.742909020486906,-73.9770605796758,11,39,0.282051282051282,-3.3,0,0,1
85,440148,539,Metropolitan Ave & Bedford Ave,12,2,17,40.71534825,-73.96024116,22,31,0.7096774193548387,6.1,0,2,0
86,2243658,2001,Sands St & Navy St,6,4,2,40.69968874076661,-73.9792749324156,2,15,0.1333333333333333,25.6,0,2,3
87,2459377,2002,Wythe Ave & Metropolitan Ave,6,4,4,40.71688699585005,-73.96319799439499,23,27,0.8518518518518517,24.4,0,4,0
88,1214062,2005,Railroad Ave & Kay Ave,10,6,8,40.70531194,-73.97100056,8,12,0.6666666666666666,16.7,1,2,3
89,607244,2012,E 27 St & 1 Ave,5,6,8,40.739445,-73.976806,32,36,0.8888888888888888,18.9,0,5,1
90,2868279,2017,E 43 St & 2 Ave,2,3,9,40.75022392,-73.97121414,1,39,0.0256410256410256,-4.4,0,0,1
91,235290,3044,Albany Ave & Fulton St,5,5,22,40.6800105,-73.938475,7,27,0.2592592592592592,24.4,0,0,2
92,802269,3046,Marcus Garvey Blvd & Macon St,5,6,2,40.682601,-73.938037,13,19,0.6842105263157894,16.1,1,1,0
93,2027217,3047,Halsey St & Tompkins Ave,6,2,4,40.68236871613298,-73.9441179969845,11,21,0.5238095238095238,23.9,0,1,2
94,599010,3048,Putnam Ave & Nostrand Ave,9,7,12,40.68402,-73.94977,10,19,0.5263157894736841,20.6,0,1,2
95,843796,3050,Putnam Ave & Throop Ave,10,3,10,40.6851532,-73.94111,0,21,0.0,20.0,0,1,1
96,1856586,3056,Kosciuszko St & Nostrand Ave,5,7,3,40.69072552683768,-73.9513346114241,5,23,0.217391304347826,13.3,0,0,2
97,2524986,3057,Kosciuszko St & Tompkins Ave,10,6,8,40.691282598061925,-73.9452415687412,2,18,0.1111111111111111,16.7,1,1,2
98,440606,3058,Lewis Ave & Kosciuszko St,5,6,2,40.69237074,-73.93705428,12,24,0.5,16.1,1,0,2
99,2139325,3059,Pulaski St & Marcus Garvey Blvd,5,2,14,40.6933982,-73.939877,5,19,0.263157894736842,15.0,0,0,2
100,1690744,3060,Willoughby Ave & Tompkins Ave,4,6,6,40.69425403,-73.94626915,15,19,0.7894736842105263,12.2,0,1,2
101,1492654,3061,Throop Ave & Myrtle Ave,10,6,8,40.69622937,-73.94371094,2,21,0.0952380952380952,16.7,1,0,1
102,581892,3062,Myrtle Ave & Marcy Ave,6,2,5,40.695398158559634,-73.94954909295599,7,23,0.3043478260869565,23.3,0,2,2
103,2501334,3063,Nostrand Ave & Myrtle Ave,9,5,10,40.69527008,-73.95238108,18,20,0.9,25.6,0,2,0
104,2580567,3064,Myrtle Ave & Lewis Ave,6,1,17,40.69681963,-73.93756926,16,23,0.6956521739130433,31.7,0,2,0
105,2365788,3066,Tompkins Ave & Hopkins St,9,7,12,40.69957608,-73.94708417,9,19,0.4736842105263157,20.6,0,2,2
106,2038343,3067,Broadway & Whipple St,7,2,1,40.7016657,-73.9437303,23,27,0.8518518518518517,26.1,0,2,0
107,2048663,3070,McKibbin St & Manhattan Ave,10,7,14,40.70510918,-73.94407279,9,23,0.391304347826087,13.9,0,1,2
108,1409111,3071,Boerum St & Broadway,8,4,16,40.70538077,-73.94976519,3,19,0.1578947368421052,28.9,0,2,0
109,2412088,3072,Leonard St & Boerum St,10,6,8,40.70583343071085,-73.94644579934045,1,24,0.0416666666666666,16.7,1,1,2
110,2597663,3073,Division Ave & Hooper St,7,2,17,40.70691254,-73.95441667,1,27,0.037037037037037,31.7,0,0,2
111,29208,3075,Division Ave & Marcy Ave,5,6,2,40.70708701,-73.95796783,3,33,0.0909090909090909,16.1,1,0,1
112,705845,3077,Stagg St & Union Ave,5,2,13,40.70877085608638,-73.95095257753317,0,33,0.0,14.4,0,1,2
113,1425401,3080,S 4 St & Rodney St,6,1,19,40.70934,-73.95608,5,21,0.238095238095238,31.1,0,0,2
114,253027,3090,N 8 St & Driggs Ave,5,6,17,40.71774592,-73.95600096,14,31,0.4516129032258064,16.7,0,5,3
115,1045322,3092,Berry St & N 8 St,12,4,5,40.71900949977999,-73.95852516099721,1,27,0.037037037037037,-0.6,0,2,3
116,1013469,3093,N 6 St & Bedford Ave,3,4,0,40.717451682724366,-73.95850939245885,1,28,0.0357142857142857,3.9,0,5,3
117,18412,3094,Graham Ave & Withers St,12,4,5,40.7169811,-73.94485918,2,18,0.1111111111111111,-0.6,0,0,2
118,1960747,3096,Union Ave & N 12 St,5,2,13,40.71924,-73.95242,12,39,0.3076923076923077,14.4,0,1,2
119,27208,3101,N 12 St & Bedford Ave,4,3,3,40.72079822390124,-73.95484713333549,1,27,0.037037037037037,10.0,0,0,2
120,2244291,3102,Driggs Ave & Lorimer St,5,6,2,40.72179134,-73.9504154,10,27,0.3703703703703703,16.1,1,0,2
121,178469,3103,N 11 St & Wythe Ave,5,3,20,40.72153267,-73.95782357,11,27,0.4074074074074073,26.1,0,2,3
122,1577857,3105,N 15 St & Wythe Ave,12,3,12,40.724055,-73.955736,10,24,0.4166666666666666,-0.6,0,0,2
123,1178108,3109,Banker St & Meserole Ave,11,1,12,40.72606,-73.95621,19,31,0.6129032258064516,4.4,0,1,0
124,2676357,3112,Milton St & Franklin St,7,5,4,40.72905999282722,-73.95779000818777,4,33,0.1212121212121212,22.8,1,2,3
125,1381250,3116,Huron St & Franklin St,6,7,21,40.73266,-73.95826,9,45,0.2,28.3,0,1,2
126,1714091,3117,Franklin St & Dupont St,5,2,13,40.73564001969587,-73.95866000492394,9,27,0.3333333333333333,14.4,0,1,0
127,1908901,3120,Center Blvd & Borden Ave,8,6,12,40.74161,-73.96044,0,20,0.0,27.8,0,2,0
128,1223716,3121,Jackson Ave & 46 Rd,10,6,7,40.74524768,-73.94733276,4,27,0.1481481481481481,17.8,1,2,3
129,2234464,3122,48 Ave & 5 St,9,7,12,40.744363241575456,-73.95587325519078,6,31,0.1935483870967741,20.6,0,2,0
130,880759,3123,31 St & Thomson Ave,9,7,11,40.744697437987,-73.93540373202681,5,27,0.1851851851851851,20.0,0,2,3
131,2294808,3124,46 Ave & 5 St,10,6,8,40.74731,-73.95451,2,27,0.074074074074074,16.7,1,4,0
132,1633630,3126,44 Dr & Jackson Ave,4,2,18,40.74718232360252,-73.94326351021425,10,34,0.2941176470588235,15.6,0,2,2
133,1588162,3127,9 St & 44 Rd,5,7,3,40.74966,-73.9521,32,35,0.914285714285714,13.3,0,2,3
134,799966,3128,21 St & 43 Ave,4,3,2,40.75052534,-73.94594845,10,23,0.4347826086956521,10.6,0,2,0
135,1098875,3130,21 St & Queens Plaza North,10,6,8,40.75325964,-73.94335788,1,31,0.032258064516129,16.7,1,2,2
136,1727614,3131,E 68 St & 3 Ave,10,6,8,40.76712840349542,-73.96224617958067,4,31,0.1290322580645161,16.7,1,0,1
137,420715,3132,E 59 St & Madison Ave,12,3,20,40.7635053236996,-73.97109242930873,1,35,0.0285714285714285,3.9,0,5,1
138,1848601,3134,3 Ave & E 62 St,5,2,13,40.76312584,-73.96526895,5,51,0.0980392156862745,14.4,0,0,1
139,647700,3135,E 75 St & 3 Ave,9,7,11,40.77112927,-73.95772297,5,41,0.1219512195121951,20.0,0,1,2
140,148194,3136,5 Ave & E 63 St,8,1,12,40.76638608305471,-73.97151242713488,2,47,0.0425531914893617,26.1,0,2,3
141,897153,3137,5 Ave & E 73 St,9,6,19,40.77282817194925,-73.96685277301444,4,31,0.1290322580645161,21.7,0,0,3
142,1352089,3139,E 72 St & Park Ave,9,7,12,40.771184738234325,-73.96410361628477,37,43,0.8604651162790697,20.6,0,0,2
143,1292100,3140,1 Ave & E 78 St,10,4,1,40.771404248005965,-73.95351659558764,53,55,0.9636363636363636,10.0,0,4,0
144,1348548,3141,1 Ave & E 68 St,11,5,16,40.76500524724615,-73.9581849122329,1,59,0.0169491525423728,20.6,0,5,1
145,1456800,3146,E 81 St & 3 Ave,12,4,6,40.77573034,-73.9567526,18,47,0.3829787234042553,-1.1,0,1,2
146,269208,3147,E 85 St & 3 Ave,8,3,22,40.778012052339136,-73.9540714657724,20,39,0.5128205128205127,22.8,0,1,0
147,562534,3148,E 84 St & 1 Ave,10,3,7,40.77565541291816,-73.95068614418935,11,31,0.3548387096774193,18.9,0,4,0
148,2839581,3153,E 71 St & 2 Ave,8,6,11,40.768175467422445,-73.95910263061523,0,37,0.0,26.7,0,0,1
149,2362905,3156,E 72 St & York Ave,5,4,11,40.766638141892166,-73.95348295747458,17,39,0.4358974358974359,20.6,0,0,2
150,1329351,3158,W 63 St & Broadway,10,3,16,40.77163852214548,-73.98261428344092,0,31,0.0,10.6,0,0,2
151,1731646,3161,W 76 St & Columbus Ave,5,4,23,40.7801839642592,-73.97728532355958,32,59,0.5423728813559322,14.4,1,1,2
152,338919,3162,W 78 St & Broadway,10,7,7,40.78339981,-73.98093133,6,39,0.1538461538461538,17.8,0,1,2
153,2298344,3163,Central Park West & W 68 St,5,3,12,40.7734066,-73.97782542,11,43,0.2558139534883721,13.9,0,0,3
154,2071599,3164,Columbus Ave & W 72 St,7,6,23,40.77705749649424,-73.9789847533657,12,67,0.1791044776119402,25.0,0,1,2
155,2810662,3165,Central Park West & W 72 St,8,4,19,40.775793063619005,-73.97620285768829,17,51,0.3333333333333333,31.1,0,1,0
156,2833660,3167,Amsterdam Ave & W 73 St,5,4,23,40.77966808755601,-73.98093044407285,13,55,0.2363636363636363,28.3,0,1,2
157,521152,3168,Central Park West & W 85 St,9,6,8,40.78472675142751,-73.96961715722429,1,31,0.032258064516129,20.6,0,4,0
158,698039,3171,Amsterdam Ave & W 82 St,6,1,22,40.78524672,-73.97667321,16,39,0.4102564102564102,27.2,0,1,0
159,2784082,3172,W 74 St & Columbus Ave,11,5,12,40.7785669,-73.97754961,0,27,0.0,14.4,0,1,2
160,2016084,3175,W 70 St & Amsterdam Ave,8,2,5,40.77748045114182,-73.98288594068246,6,31,0.1935483870967741,21.1,0,1,2
161,325143,3176,W 64 St & West End Ave,7,2,20,40.77452835,-73.98753759,34,43,0.7906976744186046,28.9,0,1,2
162,547946,3179,Park Ave & Marcus Garvey Blvd,5,6,2,40.698617,-73.941342,15,23,0.6521739130434782,16.1,1,2,2
163,892916,3182,Yankee Ferry Terminal,10,2,14,40.686931,-74.016966,18,42,0.4285714285714285,8.3,0,3,0
164,801740,3224,W 13 St & Hudson St,5,4,16,40.73997354103409,-74.00513872504233,28,39,0.717948717948718,30.6,0,2,0
165,2696996,3226,W 82 St & Central Park West,4,5,18,40.78275,-73.97137,22,45,0.4888888888888888,13.9,0,1,2
166,1413924,3232,Bond St & Fulton St,5,2,13,40.68962188790333,-73.98304268717766,25,31,0.8064516129032256,14.4,0,2,3
167,1362098,3233,E 48 St & 5 Ave,6,1,0,40.757245685183776,-73.97805913430997,1,39,0.0256410256410256,25.6,0,5,1
168,2636409,3235,E 41 St & Madison Ave,6,1,23,40.752165280621966,-73.97992193698882,1,31,0.032258064516129,26.7,0,0,1
169,1798577,3236,W 42 St & Dyer Ave,5,6,2,40.758984809405945,-73.99379969202677,23,33,0.696969696969697,16.1,1,4,2
170,2532681,3241,Monroe St & Tompkins Ave,6,4,4,40.686203,-73.944694,18,19,0.9473684210526316,24.4,0,1,2
171,1900140,3242,Schermerhorn St & Court St,10,2,13,40.69102926901552,-73.991833629321,16,39,0.4102564102564102,15.0,1,2,3
172,1743799,3249,Verona Pl & Fulton St,2,3,8,40.6803560840434,-73.9476791024208,9,19,0.4736842105263157,-3.3,0,0,2
173,734030,3254,Soissons Landing,6,7,7,40.69231660719192,-74.01486575603485,21,29,0.7241379310344827,18.9,0,3,3
174,1585613,3258,W 27 St & 10 Ave,4,6,13,40.75018156325683,-74.00218427181245,8,37,0.2162162162162162,21.0,0,5,2
175,2628647,3259,9 Ave & W 28 St,7,2,5,40.749370241932766,-73.99923384189604,3,27,0.1111111111111111,25.6,0,1,0
176,1022884,3282,5 Ave & E 88 St,3,5,19,40.78306999505976,-73.95938999819934,29,38,0.7631578947368421,12.2,0,0,3
177,2864081,3284,E 88 St & Park Ave,12,1,7,40.781410700190015,-73.95595908164978,4,41,0.0975609756097561,2.2,0,0,1
178,1061699,3288,E 88 St & 1 Ave,4,4,6,40.77830100756199,-73.94881341283697,25,39,0.641025641025641,10.0,1,4,3
179,2854299,3290,E 89 St & York Ave,11,6,21,40.777945316434746,-73.9460410149435,0,35,0.0,10.0,1,1,0
180,2328027,3293,W 92 St & Broadway,9,7,11,40.7921,-73.9739,14,24,0.5833333333333333,20.0,0,1,2
181,2559158,3294,E 91 St & Park Ave,9,7,12,40.7835016,-73.955327,3,38,0.0789473684210526,20.6,0,0,1
182,1756298,3295,Central Park W & W 96 St,10,3,19,40.79126999812638,-73.96483900111724,19,59,0.3220338983050847,24.4,0,1,2
183,1183262,3296,E 93 St & 2 Ave,6,4,20,40.782454175279874,-73.9489196240902,29,42,0.6904761904761904,25.6,0,2,0
184,1079464,3298,Warren St & Court St,10,6,7,40.686371,-73.99383324,3,23,0.1304347826086956,17.8,1,2,3
185,384995,3299,E 98 St & Park Ave,9,7,12,40.78813,-73.95206,0,25,0.0,20.6,0,0,1
186,175286,3301,Columbus Ave & W 95 St,3,4,4,40.79195568586411,-73.96808699871315,34,39,0.8717948717948718,4.4,0,1,2
187,2398286,3304,6 Ave & 9 St,9,7,12,40.668127,-73.98377641,4,27,0.1481481481481481,20.6,0,0,2
188,941361,3305,E 91 St & 2 Ave,12,3,12,40.781122323752754,-73.94965590003534,17,39,0.4358974358974359,-0.6,0,4,0
189,944011,3306,10 St & 7 Ave,5,2,12,40.6662078,-73.98199886,5,23,0.217391304347826,14.4,0,0,1
190,2768541,3307,West End Ave & W 94 St,5,6,7,40.79416539785027,-73.97412399838835,11,31,0.3548387096774193,19.4,0,1,0
191,1194847,3308,Kane St & Clinton St,10,6,8,40.6861758,-73.99645295,0,27,0.0,16.7,1,4,0
192,1660769,3309,E 97 St & 3 Ave,10,6,8,40.7859201,-73.94860294,1,30,0.0333333333333333,16.7,1,0,2
193,1533888,3310,14 St & 7 Ave,11,6,5,40.663779,-73.98396846,12,24,0.5,-8.3,0,1,2
194,393259,3311,Columbia St & Kane St,5,7,3,40.68763158162438,-74.0016255855426,21,21,1.0,13.3,0,4,3
195,1446079,3312,1 Ave & E 94 St,8,4,23,40.781721203905846,-73.94594001485011,36,39,0.9230769230769232,28.3,0,3,3
196,229653,3314,W 95 St & Broadway,10,6,8,40.7937704,-73.971888,0,32,0.0,16.7,1,1,2
197,1794767,3315,Henry St & Degraw St,10,6,7,40.6847514,-73.99917254,15,23,0.6521739130434782,17.8,1,4,0
198,645093,3316,W 104 St & Amsterdam Ave,6,7,4,40.7989937,-73.9662173778,12,47,0.2553191489361701,21.7,1,0,2
199,1766035,3317,10 St & 5 Ave,10,6,7,40.6686273,-73.98700053,4,24,0.1666666666666666,17.8,1,2,0
200,2168003,3318,2 Ave & E 96 St,9,7,11,40.7839636,-73.9471673,27,39,0.6923076923076922,20.0,0,3,0
201,2511185,3319,14 St & 5 Ave,9,7,12,40.66628697356258,-73.9889505310162,15,21,0.7142857142857143,20.6,0,1,0
202,2727857,3320,Central Park West & W 100 St,5,4,23,40.79388982649832,-73.96304876524158,1,49,0.0204081632653061,14.4,1,1,0
203,362245,3321,Clinton St & Union St,11,1,4,40.6831164,-73.99785267,6,25,0.24,8.9,0,1,2
204,1007952,3324,3 Ave & 14 St,12,4,5,40.6685455,-73.99333264,23,25,0.92,-0.6,0,3,3
205,1092697,3325,E 95 St & 3 Ave,5,4,13,40.7849032,-73.950503,2,31,0.064516129032258,25.6,0,0,2
206,2705165,3326,Clinton St & Centre St,10,6,8,40.67434,-74.00194698,1,21,0.0476190476190476,16.7,1,2,0
207,2281008,3327,3 Ave & E 100 St,9,7,13,40.7877214,-73.94728331,11,27,0.4074074074074073,22.2,0,2,2
208,484780,3328,W 100 St & Manhattan Ave,8,7,8,40.79499998642669,-73.96450000678665,12,39,0.3076923076923077,22.0,1,1,2
209,2802323,3329,Degraw St & Smith St,4,2,13,40.6829151,-73.99318208,24,27,0.8888888888888888,15.6,0,1,0
210,2470963,3330,Henry St & Bay St,10,6,8,40.6725058,-74.00494695,10,19,0.5263157894736841,16.7,1,3,3
211,219999,3332,Degraw St & Hoyt St,10,6,8,40.68199044270703,-73.99079024791716,0,19,0.0,16.7,1,4,0
212,1435474,3335,Union St & 4 Ave,7,6,23,40.6772744,-73.98282002,26,28,0.9285714285714286,25.0,0,3,3
213,1089118,3336,E 97 St & Madison Ave,10,6,8,40.787801002330376,-73.95355899345385,0,41,0.0,16.7,1,0,1
214,1479132,3338,2 Ave & E 99 St,5,2,13,40.7862586,-73.94552579,4,31,0.1290322580645161,14.4,0,2,0
215,721165,3339,Berkeley Pl & 6 Ave,4,3,1,40.6765304,-73.97846879,19,23,0.8260869565217391,10.6,0,4,3
216,1823525,3340,Wolcott St & Dwight St,10,6,8,40.6753274,-74.0100698,6,21,0.2857142857142857,16.7,1,3,3
217,1838674,3342,Pioneer St & Richards St,9,7,11,40.6777748,-74.0094613,17,23,0.7391304347826086,20.0,0,3,3
218,2393648,3343,W 107 St & Columbus Ave,8,7,9,40.79975680588506,-73.96211286486873,8,23,0.3478260869565217,22.2,0,1,2
219,1708312,3345,Madison Ave & E 99 St,10,6,8,40.78948538878236,-73.9524293048636,13,35,0.3714285714285714,16.7,1,5,1
220,86366,3346,Berkeley Pl & 7 Ave,5,7,3,40.67514680618273,-73.9752320595812,28,29,0.9655172413793104,13.3,0,2,0
221,536694,3347,Van Brunt St & Wolcott St,4,3,1,40.6773429,-74.01275056,18,21,0.8571428571428571,10.6,0,3,3
222,1834978,3348,Coffey St & Conover St,4,2,17,40.677236,-74.015665,13,19,0.6842105263157894,15.0,0,3,3
223,853301,3350,W 100 St & Broadway,6,5,5,40.79737209296245,-73.97041193112238,25,39,0.641025641025641,22.8,1,1,2
224,286013,3351,E 102 St & 1 Ave,6,4,1,40.7869946,-73.94164802,24,25,0.96,17.8,0,4,3
225,1935916,3352,Sigourney St & Columbia St,10,6,7,40.67267243410948,-74.0087952464819,9,21,0.4285714285714285,17.8,1,3,3
226,1948203,3354,3 St & Prospect Park West,12,4,6,40.66813199685157,-73.97363831862698,29,31,0.9354838709677418,-1.1,0,1,2
227,1313203,3355,E 66 St & Madison Ave,5,1,16,40.76800889305947,-73.96845281124115,2,25,0.08,16.7,0,0,1
228,2190300,3356,Amsterdam Ave & W 66 St,3,6,17,40.774667118943206,-73.98470568839504,2,21,0.0952380952380952,13.3,0,1,2
229,2752933,3357,W 106 St & Amsterdam Ave,10,7,12,40.8008363,-73.9664492472,5,35,0.1428571428571428,12.8,0,1,2
230,1120817,3358,Garfield Pl & 8 Ave,12,4,5,40.6711978,-73.97484126,8,25,0.32,-0.6,0,1,1
231,1394376,3359,E 68 St & Madison Ave,9,7,11,40.7691572,-73.96703464,0,35,0.0,20.0,0,0,1
232,2338375,3360,Amsterdam Ave & W 79 St,6,5,23,40.78293909177556,-73.9786517118081,12,25,0.48,26.7,0,4,0
233,2486432,3361,Carroll St & 6 Ave,10,6,7,40.6740886,-73.9787282,0,23,0.0,17.8,1,1,0
234,99081,3362,Madison Ave & E 82 St,9,3,20,40.7781314,-73.96069399,2,34,0.0588235294117647,22.8,1,0,2
235,671126,3364,Carroll St & 5 Ave,10,6,8,40.6751622,-73.9814832,1,27,0.037037037037037,16.7,1,4,0
236,838952,3365,3 St & 7 Ave,12,5,6,40.6703837,-73.97839676,19,27,0.7037037037037037,0.0,0,1,2
237,2054242,3366,West End Ave & W 107 St,6,5,22,40.8021174,-73.9681805305,9,31,0.2903225806451613,27.2,0,1,2
238,2312810,3367,5 Ave & E 103 St,7,7,22,40.792255261303545,-73.95249934543389,7,39,0.1794871794871794,27.2,0,0,2
239,818507,3369,E 82 St & East End Ave,8,1,19,40.77246069767264,-73.94682079953004,5,29,0.1724137931034482,27.2,0,1,2
240,2496086,3370,E 78 St & 2 Ave,10,6,8,40.77279660349192,-73.95577801381107,0,25,0.0,16.7,1,1,2
241,2723645,3371,4 Ave & 2 St,7,4,21,40.674613422475815,-73.98501142859459,26,27,0.9629629629629628,24.4,0,3,3
242,907267,3372,E 74 St & 1 Ave,6,1,21,40.7689738,-73.95482273,7,39,0.1794871794871794,27.8,0,1,0
243,928600,3373,3 St & 3 Ave,10,6,8,40.6750705,-73.98775226,6,27,0.2222222222222222,16.7,1,3,3
244,870756,3374,Central Park North & Adam Clayton Powell Blvd,1,7,12,40.799484002827455,-73.95561300212057,25,36,0.6944444444444444,-4.4,0,3,3
245,319493,3375,3 Ave & E 72 St,10,6,8,40.7699426,-73.96060712,1,35,0.0285714285714285,16.7,1,0,1
246,1871764,3376,E 65 St & 2 Ave,10,6,7,40.76471851944339,-73.96222069859505,5,39,0.1282051282051281,17.8,1,0,1
247,2148697,3378,E 76 St & Park Ave,9,7,11,40.77376298934656,-73.96222087691594,11,28,0.3928571428571428,20.0,0,0,2
248,509085,3379,E 103 St & Lexington Ave,11,3,0,40.79030511452245,-73.94755755834753,3,35,0.0857142857142857,8.9,0,2,0
249,2357129,3381,3 St & Hoyt St,9,2,4,40.6777287,-73.99364123,14,21,0.6666666666666666,21.7,0,2,0
250,2660850,3383,Cathedral Pkwy & Broadway,12,3,12,40.804213,-73.96699104,3,25,0.12,-0.6,0,1,2
251,865985,3384,Smith St & 3 St,10,6,8,40.6787242,-73.99599099,0,25,0.0,16.7,1,0,2
252,243403,3387,E 106 St & Madison Ave,5,7,3,40.7934337,-73.94945003,2,25,0.08,13.3,0,2,0
253,628609,3388,President St & Henry St,9,4,18,40.6828003,-73.99990419,10,25,0.4,27.2,0,4,0
254,759861,3390,E 109 St & 3 Ave,3,7,1,40.79329668,-73.9432083,21,24,0.875,15.6,1,3,0
255,1281159,3391,E 106 St & 1 Ave,10,6,8,40.7892529,-73.93956237,6,25,0.24,16.7,1,3,3
256,1156563,3392,Commerce St & Van Brunt St,10,6,8,40.6812117,-74.00860912,12,19,0.631578947368421,16.7,1,3,0
257,350720,3393,Richards St & Delavan St,10,6,8,40.6794327,-74.00785041,10,19,0.5263157894736841,16.7,1,3,0
258,2786107,3394,Columbia St & W 9 St,5,3,7,40.6769993,-74.00647134,21,21,1.0,16.7,0,3,3
259,2836222,3395,Henry St & W 9 St,4,2,7,40.6763744,-74.00324957,9,19,0.4736842105263157,6.1,0,3,0
260,976438,3396,Clinton St & 4 Place,10,6,8,40.6783563,-74.00014502,0,25,0.0,16.7,1,1,2
261,2608482,3397,Court St & Nelson St,1,3,2,40.6763947,-73.99869893,22,25,0.88,-10.6,0,3,3
262,624815,3398,Smith St & 9 St,12,3,10,40.6746957,-73.99785768,23,23,1.0,1.1,0,2,3
263,2095621,3399,7 St & 3 Ave,10,6,8,40.67260298150126,-73.98983001708984,16,24,0.6666666666666666,16.7,1,3,3
264,2375441,3400,E 110 St & Madison Ave,9,7,12,40.796153535804415,-73.9478214152551,3,24,0.125,20.6,0,4,0
265,2623410,3402,Court St & State St,4,3,3,40.69023747606845,-73.99203073940555,14,23,0.608695652173913,10.0,0,2,3
266,1773576,3404,7 St & 5 Ave,10,3,9,40.6704922,-73.98541675,0,27,0.0,19.0,0,2,0
267,784365,3405,5 St & 6 Ave,9,7,11,40.6704836,-73.98208968,0,23,0.0,20.0,0,1,2
268,186000,3407,Union St & Nevins St,10,6,8,40.67909799721684,-73.98765474557875,5,23,0.217391304347826,16.7,1,3,3
269,365975,3408,Congress St & Clinton St,5,2,13,40.6881529,-73.99520919,25,27,0.925925925925926,14.4,0,4,0
270,1263914,3409,Bergen St & Smith St,11,5,12,40.6867443,-73.99063168,21,35,0.6,14.4,0,3,3
271,1295688,3410,Dean St & Hoyt St,9,7,12,40.6864442,-73.98759104,15,31,0.4838709677419355,20.6,0,2,0
272,1559120,3411,Bond St & Bergen St,12,3,16,40.6849668,-73.98620772,24,27,0.8888888888888888,3.9,0,1,0
273,1544599,3413,Wyckoff St & 3 Ave,6,7,1,40.6827549,-73.98258555,20,22,0.909090909090909,27.8,0,2,0
274,2605670,3414,Bergen St & Flatbush Ave,4,3,1,40.680944723477296,-73.97567331790921,25,33,0.7575757575757575,10.6,0,2,2
275,2867267,3416,7 Ave & Park Pl,3,5,19,40.67761468980208,-73.97324284256149,17,25,0.68,7.2,1,5,2
276,754742,3417,Baltic St & 5 Ave,12,5,14,40.679576607091406,-73.97854973429052,21,27,0.7777777777777777,6.1,0,3,3
277,1335068,3418,Plaza St West & Flatbush Ave,6,1,18,40.6750207,-73.97111473,0,33,0.0,32.2,0,0,2
278,134756,3419,Douglass St & 4 Ave,1,7,12,40.6792788,-73.98154004,26,27,0.9629629629629628,-4.4,0,3,3
279,129985,3420,Douglass St & 3 Ave,10,6,8,40.6802133,-73.98432695,13,21,0.619047619047619,16.7,1,3,3
280,2474945,3421,Hoyt St & Warren St,5,3,16,40.6843549,-73.98901629,17,23,0.7391304347826086,28.9,0,3,0
281,1271557,3422,Columbia St & Degraw St,10,4,20,40.6859296,-74.00242364,20,21,0.9523809523809524,24.4,0,3,3
282,517998,3423,West Drive & Prospect Park West,11,4,4,40.66106337873646,-73.97945255440673,17,29,0.586206896551724,6.1,0,1,0
283,823145,3425,2 Ave & E 104 St,9,7,12,40.7892105,-73.94370784,14,33,0.4242424242424242,20.6,0,1,0
284,2254463,3427,Lafayette St & Jersey St,1,3,21,40.72430527250332,-73.99600982666014,3,40,0.075,0.6,0,5,3
285,402877,3429,Hanson Pl & Ashland Pl,5,6,13,40.685068073081766,-73.97790759801862,22,39,0.5641025641025641,16.7,0,2,3
286,771077,3434,W 88 St & West End Ave,10,3,5,40.79025417330419,-73.97718340158461,23,35,0.6571428571428571,7.8,0,1,2
287,1142296,3437,Riverside Dr & W 91 St,8,5,1,40.79313480986663,-73.97700369358063,19,39,0.4871794871794871,23.3,0,1,2
288,497243,3438,E 76 St & 3 Ave,8,1,7,40.772248537721744,-73.95842134952545,7,31,0.2258064516129032,22.2,0,0,2
289,2844307,3443,W 52 St & 6 Ave,6,6,3,40.76132982786815,-73.97982001489072,0,41,0.0,23.3,0,5,1
290,557273,3447,E 71 St & 1 Ave,5,3,8,40.76703432309872,-73.95622730255127,6,41,0.1463414634146341,10.0,0,0,2
291,774713,3449,Eckford St & Engert Ave,9,7,11,40.72146256229816,-73.94800901412965,1,18,0.0555555555555555,20.0,0,1,2
292,492707,3452,Bayard St & Leonard St,7,2,23,40.71915571298016,-73.94885393926462,6,43,0.1395348837209302,27.8,0,0,1
293,2352377,3453,Devoe St & Lorimer St,11,3,6,40.71335225581173,-73.94910337174153,3,19,0.1578947368421052,9.4,0,0,2
294,1692861,3454,Leonard St & Maujer St,5,6,2,40.7103685423523,-73.94705951213837,11,24,0.4583333333333333,16.1,1,1,2
295,850237,3455,Schermerhorn St & 3 Ave,5,6,20,40.68680820503432,-73.98036181926726,31,35,0.8857142857142856,28.9,0,2,0
296,1511953,3456,Jackson St & Leonard St,10,6,8,40.71638027450792,-73.94821271778098,1,22,0.0454545454545454,16.7,1,0,1
297,328117,3457,E 58 St & Madison Ave,6,6,0,40.76302594280519,-73.97209525108337,1,46,0.0217391304347826,16.7,0,5,1
298,1989622,3458,W 55 St & 6 Ave,3,5,7,40.76309387270797,-73.9783501625061,16,40,0.4,-7.2,0,5,1
299,1375491,3459,E 53 St & 3 Ave,10,6,8,40.75763227739442,-73.96930575370787,14,34,0.4117647058823529,16.7,1,5,1
300,207850,3462,E 44 St & 2 Ave,9,2,23,40.751183874632765,-73.97138714790344,2,39,0.0512820512820512,16.7,1,5,1
301,1307531,3463,E 16 St & Irving Pl,6,4,5,40.73536704543461,-73.98797393608542,2,37,0.054054054054054,23.3,0,0,2
302,2419214,3466,W 45 St & 6 Ave,7,2,19,40.75668720603179,-73.98257732391357,0,34,0.0,23.9,0,5,1
303,2831630,3467,W Broadway & Spring Street,4,6,8,40.72494672359416,-74.00165855884552,16,42,0.3809523809523809,17.2,0,2,0
304,2648089,3469,India St & West St,10,6,8,40.7318139963117,-73.9599501842696,15,23,0.6521739130434782,16.7,1,2,3
305,2745311,3472,W 15 St & 10 Ave,11,5,2,40.74275383051604,-74.00747358441728,3,39,0.0769230769230769,0.6,0,5,3
306,164514,3477,39 St & 2 Ave - Citi Bike HQ at Industry City,2,3,8,40.65539977447831,-74.01062786579134,30,33,0.909090909090909,-3.3,0,2,0
307,601,3478,2 Ave & 36 St - Citi Bike HQ at Industry City,5,7,3,40.65708862420859,-74.00870209036083,30,43,0.6976744186046511,13.3,0,2,3
308,1537315,3479,Picnic Point,6,1,7,40.68512559515416,-74.02535319328307,9,45,0.2,20.6,0,0,2
309,1652925,3486,Schermerhorn St & Bond St,4,3,1,40.688417435531456,-73.98451658137837,15,30,0.5,10.6,0,2,3
310,1918477,3490,E 116 St & 2 Ave,4,6,9,40.79687900629192,-73.93726103842755,14,31,0.4516129032258064,10.6,1,0,1
311,678667,3491,E 118 St & 1 Ave,10,3,6,40.79747,-73.93504,11,24,0.4583333333333333,20.0,0,2,0
312,918946,3492,E 118 St & Park Ave,10,6,8,40.8005385,-73.9419949,4,27,0.1481481481481481,16.7,1,0,2
313,594093,3493,E 118 St & 3 Ave,10,1,10,40.799139,-73.9389152,0,31,0.0,7.8,0,0,1
314,427814,3494,E 115 St & Lexington Ave,10,7,9,40.797911,-73.9423,3,25,0.12,7.8,1,2,2
315,1619140,3495,E 114 St & 1 Ave,2,3,0,40.7945663,-73.9362541,23,26,0.8846153846153845,9.4,0,3,0
316,957534,3496,1 Ave & E 110 St,10,6,8,40.7923272,-73.9383,2,25,0.08,16.7,1,3,3
317,636710,3497,Pleasant Ave & E 116 St,5,2,12,40.7949879,-73.9333349,18,23,0.782608695652174,14.4,0,2,0
318,42704,3498,Pleasant Ave & E 120 St,6,4,11,40.7974772,-73.9311847,11,21,0.5238095238095238,21.7,0,2,0
319,568758,3499,2 Ave & E 122 St,5,7,3,40.8006721,-73.9349,2,25,0.08,13.3,0,0,2
320,1133181,3500,E 115 St & Madison Ave,9,7,11,40.7989445,-73.944846,15,31,0.4838709677419355,20.0,0,1,2
321,2162498,3501,E 118 St & Madison Ave,10,6,8,40.8014866,-73.9442507,3,29,0.1034482758620689,16.7,1,0,1
322,2568811,3502,Lexington Ave & E 111 St,9,7,12,40.7954121,-73.9441232,11,29,0.3793103448275861,20.6,0,2,0
323,1926262,3503,Madison Ave & E 120 St,10,6,8,40.80295,-73.942954,3,30,0.1,16.7,1,0,1
324,1050360,3505,Lexington Ave & E 127 St,6,4,4,40.805726,-73.936322,3,33,0.0909090909090909,24.4,0,2,2
325,1108529,3506,Lexington Ave & E 120 St,10,6,8,40.801306520979736,-73.93981677156334,5,29,0.1724137931034482,16.7,1,0,2
326,298959,3507,Park Ave & E 124 St,10,6,7,40.8045555,-73.9396861,1,36,0.0277777777777777,6.1,0,0,2
327,2103316,3509,Lenox Ave & W 115 St,6,4,23,40.80119386506511,-73.95007389783761,8,31,0.2580645161290322,24.4,0,2,0
328,1122931,3510,Adam Clayton Powell Blvd & W 123 St,8,2,8,40.80783163841904,-73.94937302061683,6,31,0.1935483870967741,20.0,0,0,2
